{
  "type": "FeatureCollection",
  "features": [
    {"type":"Feature","properties":{"school":"Takoma Park ES","name":"Takoma Park","zip":"20912","gradeser":"K-2","fulltype":"Elementary Schools","address2":"-","objectid":"1","relateid":"83","s_id":"7540","schoolname":"Takoma Park","grade":"LOW","exporttype":"Schools","principal":"Dr. Zadia T. Gadsden","address":"7511 Holly Ave","telephone":"240-740-0980","s_id3":"754","type":"ES","schooltype":"ES","schoolyear":"2017-2018","trelateid":"83"},"geometry":{"type":"Point","coordinates":[-77.01242433090499,38.98258975762607]}},{"type":"Feature","properties":{"school":"Piney Branch ES","name":"Piney Branch","zip":"20912","gradeser":"3-5","fulltype":"Elementary Schools","address2":"-","objectid":"2","relateid":"84","s_id":"7490","schoolname":"Piney Branch","grade":"HIGH","exporttype":"Schools","principal":"Mrs. Rachel C. DuBois","address":"7510 Maple Ave","telephone":"301-891-8000","s_id3":"749","type":"ES","schooltype":"ES","schoolyear":"2017-2018","trelateid":"84"},"geometry":{"type":"Point","coordinates":[-77.0093675169714,38.98226479215228]}},{"type":"Feature","properties":{"school":"East Silver Spring ES","name":"East Silver Spring","zip":"20910","gradeser":"HS-2","fulltype":"Elementary Schools","address2":"-","objectid":"3","relateid":"85","s_id":"7560","schoolname":"East Silver Spring","grade":"LOW","exporttype":"Schools","principal":"Dr. Adrienne L. Morrow","address":"631 Silver Spring Ave","telephone":"240-740-0620","s_id3":"756","type":"ES","schooltype":"ES","schoolyear":"2017-2018","trelateid":"85"},"geometry":{"type":"Point","coordinates":[-77.0152105921579,38.9923950102925]}},{"type":"Feature","properties":{"school":"Rolling Terrace ES","name":"Rolling Terrace","zip":"20912","gradeser":"HS-5","fulltype":"Elementary Schools","address2":"-","objectid":"4","relateid":"86","s_id":"7710","schoolname":"Rolling Terrace","grade":"REG","exporttype":"Schools","principal":"Mr. Kenneth L. Marcus","address":"705 Bayfield St","telephone":"240-740-1950","s_id3":"771","type":"ES","schooltype":"ES","schoolyear":"2017-2018","trelateid":"86"},"geometry":{"type":"Point","coordinates":[-76.99734647138546,38.99509104826104]}},{"type":"Feature","properties":{"school":"New Hampshire Estates ES","name":"New Hampshire Estates","zip":"20903","gradeser":"HS-2","fulltype":"Elementary Schools","address2":null,"objectid":"5","relateid":"87","s_id":"7910","schoolname":"New Hampshire Estates","grade":"LOW","exporttype":"Schools","principal":"Mr. Robert S. Geiger","address":"8720 Carroll Ave","telephone":"240-740-1580","s_id3":"791","type":"ES","schooltype":"ES","schoolyear":"2017-2018","trelateid":"87"},"geometry":{"type":"Point","coordinates":[-76.99222613897194,38.998251187694166]}},{"type":"Feature","properties":{"school":"Oak View ES","name":"Oak View","zip":"20901","gradeser":"3-5","fulltype":"Elementary Schools","address2":null,"objectid":"6","relateid":"88","s_id":"7660","schoolname":"Oak View","grade":"HIGH","exporttype":"Schools","principal":"Mr. Jeffrey L. Cline","address":"400 E Wayne Ave","telephone":"301-650-6434","s_id3":"766","type":"ES","schooltype":"ES","schoolyear":"2017-2018","trelateid":"88"},"geometry":{"type":"Point","coordinates":[-77.00244244037071,39.00442791714367]}},{"type":"Feature","properties":{"school":"Montgomery Knolls ES","name":"Montgomery Knolls","zip":"20901","gradeser":"HS-2","fulltype":"Elementary Schools","address2":null,"objectid":"7","relateid":"89","s_id":"7760","schoolname":"Montgomery Knolls","grade":"LOW","exporttype":"Schools","principal":"Mrs. Arienne M Clark-Harrison","address":"807 Daleview Dr","telephone":"240-740-0840","s_id3":"776","type":"ES","schooltype":"ES","schoolyear":"2017-2018","trelateid":"89"},"geometry":{"type":"Point","coordinates":[-76.99347782705166,39.006059485992836]}},{"type":"Feature","properties":{"school":"JoAnn Leleck ES at Broad Acres","name":"JoAnn Leleck ES at Broad Acres","zip":"20903","gradeser":"HS-5","fulltype":"Elementary Schools","address2":"-","objectid":"8","relateid":"90","s_id":"3040","schoolname":"JoAnn Leleck","grade":"REG","exporttype":"Schools","principal":"Dr. Harold A. Barber","address":"710 Beacon Rd","telephone":"240-740-1900","s_id3":"304","type":"ES","schooltype":"ES","schoolyear":"2017-2018","trelateid":"90"},"geometry":{"type":"Point","coordinates":[-76.98515554000943,39.00942392068159]}},{"type":"Feature","properties":{"school":"Glen Haven ES","name":"Glen Haven","zip":"20902","gradeser":"HS-5","fulltype":"Elementary Schools","address2":"-","objectid":"9","relateid":"91","s_id":"7670","schoolname":"Glen Haven","grade":"REG","exporttype":"Schools","principal":"Dr. Jane Q. Ennis","address":"10900 Inwood Ave","telephone":"301-649-8051","s_id3":"767","type":"ES","schooltype":"ES","schoolyear":"2017-2018","trelateid":"91"},"geometry":{"type":"Point","coordinates":[-77.03673360410787,39.03369609988977]}},{"type":"Feature","properties":{"school":"Forest Knolls ES","name":"Forest Knolls","zip":"20901","gradeser":"K-5","fulltype":"Elementary Schools","address2":null,"objectid":"10","relateid":"92","s_id":"8030","schoolname":"Forest Knolls","grade":"REG","exporttype":"Schools","principal":"Mr. Evan H. Bernstein","address":"10830 Eastwood Ave","telephone":"240-740-1640","s_id3":"803","type":"ES","schooltype":"ES","schoolyear":"2017-2018","trelateid":"92"},"geometry":{"type":"Point","coordinates":[-77.02059469031006,39.03330341870589]}},{"type":"Feature","properties":{"school":"Glenallan ES","name":"Glenallan","zip":"20902","gradeser":"HS-5","fulltype":"Elementary Schools","address2":null,"objectid":"11","relateid":"93","s_id":"8170","schoolname":"Glenallan","grade":"REG","exporttype":"Schools","principal":"Mr. Peter O. Moran","address":"12520 Heurich Rd","telephone":"240-740-0760","s_id3":"817","type":"ES","schooltype":"ES","schoolyear":"2017-2018","trelateid":"93"},"geometry":{"type":"Point","coordinates":[-77.04152878747047,39.061398288306805]}},{"type":"Feature","properties":{"school":"Kemp Mill ES","name":"Kemp Mill","zip":"20902","gradeser":"HS-5","fulltype":"Elementary Schools","address2":"-","objectid":"12","relateid":"94","s_id":"8050","schoolname":"Kemp Mill","grade":"REG","exporttype":"Schools","principal":"Mr. Bernard X. James, Sr.","address":"411 Sisson St","telephone":"301-649-8046","s_id3":"805","type":"ES","schooltype":"ES","schoolyear":"2017-2018","trelateid":"94"},"geometry":{"type":"Point","coordinates":[-77.01674369167857,39.04364039056057]}},{"type":"Feature","properties":{"school":"Burnt Mills ES","name":"Burnt Mills","zip":"20901","gradeser":"HS-5","fulltype":"Elementary Schools","address2":"-","objectid":"13","relateid":"95","s_id":"3090","schoolname":"Burnt Mills","grade":"REG","exporttype":"Schools","principal":"Dr. Stacy A. Ashton","address":"11211 Childs St","telephone":"301-649-8192","s_id3":"309","type":"ES","schooltype":"ES","schoolyear":"2017-2018","trelateid":"95"},"geometry":{"type":"Point","coordinates":[-77.00155416028068,39.039491791002234]}},{"type":"Feature","properties":{"school":"Jackson Road ES","name":"Jackson Road","zip":"20904","gradeser":"HS-5","fulltype":"Elementary Schools","address2":"-","objectid":"14","relateid":"96","s_id":"3050","schoolname":"Jackson Road","grade":"REG","exporttype":"Schools","principal":"Mrs. Sally A. Macias","address":"900 Jackson Rd","telephone":"240-740-0800","s_id3":"305","type":"ES","schooltype":"ES","schoolyear":"2017-2018","trelateid":"96"},"geometry":{"type":"Point","coordinates":[-76.99185509132032,39.056387013486834]}},{"type":"Feature","properties":{"school":"Cresthaven ES","name":"Cresthaven","zip":"20903","gradeser":"K-3","fulltype":"Elementary Schools","address2":"-","objectid":"15","relateid":"97","s_id":"8080","schoolname":"Cresthaven","grade":"REG","exporttype":"Schools","principal":"Ms. Sherri A. Gorden","address":"1234 Cresthaven Dr","telephone":"240-740-0580","s_id3":"808","type":"ES","schooltype":"ES","schoolyear":"2017-2018","trelateid":"97"},"geometry":{"type":"Point","coordinates":[-76.9877886784186,39.027447092025014]}},{"type":"Feature","properties":{"school":"Pine Crest ES","name":"Pine Crest","zip":"20901","gradeser":"3-5","fulltype":"Elementary Schools","address2":null,"objectid":"16","relateid":"98","s_id":"7610","schoolname":"Pine Crest","grade":"HIGH","exporttype":"Schools","principal":"Ms. Cheryl E. Booker","address":"201 Woodmoor Dr","telephone":"240-740-1970","s_id3":"761","type":"ES","schooltype":"ES","schoolyear":"2017-2018","trelateid":"98"},"geometry":{"type":"Point","coordinates":[-77.00501355593073,39.02127848117302]}},{"type":"Feature","properties":{"school":"Westover ES","name":"Westover","zip":"20904","gradeser":"K-5","fulltype":"Elementary Schools","address2":"-","objectid":"17","relateid":"99","s_id":"5040","schoolname":"Westover","grade":"REG","exporttype":"Schools","principal":"Dr. Patricia A. Kelly","address":"401 Hawkesbury La","telephone":"301-989-5676","s_id3":"504","type":"ES","schooltype":"ES","schoolyear":"2017-2018","trelateid":"99"},"geometry":{"type":"Point","coordinates":[-77.01793979107345,39.07472858878811]}},{"type":"Feature","properties":{"school":"Stonegate ES","name":"Stonegate","zip":"20904","gradeser":"HS-5","fulltype":"Elementary Schools","address2":"-","objectid":"18","relateid":"100","s_id":"3160","schoolname":"Stonegate","grade":"REG","exporttype":"Schools","principal":"Mrs. Linda M. Jones","address":"14811 Notley Rd","telephone":"301-989-5668","s_id3":"316","type":"ES","schooltype":"ES","schoolyear":"2017-2018","trelateid":"100"},"geometry":{"type":"Point","coordinates":[-77.01577998386378,39.09936001687446]}},{"type":"Feature","properties":{"school":"Cloverly ES","name":"Cloverly","zip":"20904","gradeser":"K-5","fulltype":"Elementary Schools","address2":"-","objectid":"19","relateid":"101","s_id":"3080","schoolname":"Cloverly","grade":"REG","exporttype":"Schools","principal":"Ms. Melissa A. Brunson","address":"800 Briggs Chaney Rd","telephone":"301-989-5770","s_id3":"308","type":"ES","schooltype":"ES","schoolyear":"2017-2018","trelateid":"101"},"geometry":{"type":"Point","coordinates":[-76.99408751922832,39.107879199657745]}},{"type":"Feature","properties":{"school":"Cannon Road ES","name":"Cannon Road","zip":"20904","gradeser":"K-5","fulltype":"Elementary Schools","address2":"-","objectid":"20","relateid":"102","s_id":"3100","schoolname":"Cannon Road","grade":"REG","exporttype":"Schools","principal":"Ms. Kristine L. Donohue","address":"901 Cannon Rd","telephone":"240-740-0520","s_id3":"310","type":"ES","schooltype":"ES","schoolyear":"2017-2018","trelateid":"102"},"geometry":{"type":"Point","coordinates":[-76.99424735319346,39.068674005057936]}},{"type":"Feature","properties":{"school":"William T. Page ES","name":"Page","zip":"20904","gradeser":"HS-5","fulltype":"Elementary Schools","address2":null,"objectid":"21","relateid":"103","s_id":"3120","schoolname":"Page","grade":"REG","exporttype":"Schools","principal":"Ms. Stacey M. Brown","address":"13400 Tamarack Rd","telephone":"301-989-5672","s_id3":"312","type":"ES","schooltype":"ES","schoolyear":"2017-2018","trelateid":"103"},"geometry":{"type":"Point","coordinates":[-76.98372502540954,39.074454864814825]}},{"type":"Feature","properties":{"school":"Dr. Charles R. Drew ES","name":"Drew","zip":"20905","gradeser":"HS-5","fulltype":"Elementary Schools","address2":"-","objectid":"22","relateid":"104","s_id":"7470","schoolname":"Drew","grade":"REG","exporttype":"Schools","principal":"Ms. Wanda L. Means-Harris","address":"1200 Swinging Dale Dr","telephone":"301-989-6030","s_id3":"747","type":"ES","schooltype":"ES","schoolyear":"2017-2018","trelateid":"104"},"geometry":{"type":"Point","coordinates":[-76.9872396504425,39.09160641431544]}},{"type":"Feature","properties":{"school":"Fairland ES","name":"Fairland","zip":"20905","gradeser":"HS-5","fulltype":"Elementary Schools","address2":"-","objectid":"23","relateid":"105","s_id":"3030","schoolname":"Fairland","grade":"REG","exporttype":"Schools","principal":"Mrs. Lakeisha D. Lashley","address":"14315 Fairdale Rd","telephone":"240-740-0640","s_id3":"303","type":"ES","schooltype":"ES","schoolyear":"2017-2018","trelateid":"105"},"geometry":{"type":"Point","coordinates":[-76.95644894996452,39.090734526178025]}},{"type":"Feature","properties":{"school":"Galway ES","name":"Galway","zip":"20904","gradeser":"HS-5","fulltype":"Elementary Schools","address2":"-","objectid":"24","relateid":"106","s_id":"3130","schoolname":"Galway","grade":"REG","exporttype":"Schools","principal":"Mrs. Dorothea A. Fuller","address":"12612 Galway Dr","telephone":"301-595-2930","s_id3":"313","type":"ES","schooltype":"ES","schoolyear":"2017-2018","trelateid":"106"},"geometry":{"type":"Point","coordinates":[-76.94613476398335,39.063901987724485]}},{"type":"Feature","properties":{"school":"Greencastle ES","name":"Greencastle","zip":"20904","gradeser":"HS-5","fulltype":"Elementary Schools","address2":"-","objectid":"25","relateid":"107","s_id":"3340","schoolname":"Greencastle","grade":"REG","exporttype":"Schools","principal":"Dr. Ayesha M. McArthur-Moore","address":"13611 Robey Rd","telephone":"240-740-1420","s_id3":"334","type":"ES","schooltype":"ES","schoolyear":"2017-2018","trelateid":"107"},"geometry":{"type":"Point","coordinates":[-76.94198573229866,39.080350527040515]}},{"type":"Feature","properties":{"school":"Burtonsville ES","name":"Burtonsville","zip":"20866","gradeser":"K-5","fulltype":"Elementary Schools","address2":"-","objectid":"26","relateid":"108","s_id":"3020","schoolname":"Burtonsville","grade":"REG","exporttype":"Schools","principal":"Ms. Kimberly L. Kimber","address":"15516 Old Columbia Pik","telephone":"301-989-5654","s_id3":"302","type":"ES","schooltype":"ES","schoolyear":"2017-2018","trelateid":"108"},"geometry":{"type":"Point","coordinates":[-76.93628764212566,39.111600343427746]}},{"type":"Feature","properties":{"school":"Carderock Springs ES","name":"Carderock Springs","zip":"20817","gradeser":"K-5","fulltype":"Elementary Schools","address2":"-","objectid":"27","relateid":"109","s_id":"6040","schoolname":"Carderock Springs","grade":"REG","exporttype":"Schools","principal":"Mr. Jae W. Lee","address":"7401 Persimmon Tree La","telephone":"240-740-0540","s_id3":"604","type":"ES","schooltype":"ES","schoolyear":"2017-2018","trelateid":"109"},"geometry":{"type":"Point","coordinates":[-77.17178413490268,38.983331327273376]}},{"type":"Feature","properties":{"school":"Seven Locks ES","name":"Seven Locks","zip":"20817","gradeser":"K-5","fulltype":"Elementary Schools","address2":"-","objectid":"28","relateid":"110","s_id":"6030","schoolname":"Seven Locks","grade":"REG","exporttype":"Schools","principal":"Dr. James J. Virga, Jr.","address":"9500 Seven Locks Rd","telephone":"240-740-0940","s_id3":"603","type":"ES","schooltype":"ES","schoolyear":"2017-2018","trelateid":"110"},"geometry":{"type":"Point","coordinates":[-77.16109127482795,39.01244331136082]}},{"type":"Feature","properties":{"school":"Wyngate ES","name":"Wyngate","zip":"20817","gradeser":"K-5","fulltype":"Elementary Schools","address2":"-","objectid":"29","relateid":"111","s_id":"4220","schoolname":"Wyngate","grade":"REG","exporttype":"Schools","principal":"Mr. Travis Wiebe","address":"9300 Wadsworth Dr","telephone":"240-740-1080","s_id3":"422","type":"ES","schooltype":"ES","schoolyear":"2017-2018","trelateid":"111"},"geometry":{"type":"Point","coordinates":[-77.12837417903941,39.00946783377477]}},{"type":"Feature","properties":{"school":"Somerset ES","name":"Somerset","zip":"20815","gradeser":"K-5","fulltype":"Elementary Schools","address2":"-","objectid":"30","relateid":"112","s_id":"4050","schoolname":"Somerset","grade":"REG","exporttype":"Schools","principal":"Ms. Kelly Morris","address":"5811 Warwick Place","telephone":"240-740-1100","s_id3":"405","type":"ES","schooltype":"ES","schoolyear":"2017-2018","trelateid":"112"},"geometry":{"type":"Point","coordinates":[-77.09232392001644,38.9690771322655]}},{"type":"Feature","properties":{"school":"Chevy Chase ES","name":"Chevy Chase","zip":"20815","gradeser":"3-6","fulltype":"Elementary Schools","address2":"-","objectid":"31","relateid":"113","s_id":"4030","schoolname":"Chevy Chase","grade":"HIGH","exporttype":"Schools","principal":"Mrs. Jody L. Smith","address":"4015 Rosemary St","telephone":"301-657-4994","s_id3":"403","type":"ES","schooltype":"ES","schoolyear":"2017-2018","trelateid":"113"},"geometry":{"type":"Point","coordinates":[-77.08029470122904,38.978478312409734]}},{"type":"Feature","properties":{"school":"North Chevy Chase ES","name":"North Chevy Chase","zip":"20815","gradeser":"3-6","fulltype":"Elementary Schools","address2":"-","objectid":"32","relateid":"114","s_id":"4150","schoolname":"North Chevy Chase","grade":"HIGH","exporttype":"Schools","principal":"Ms. Renee D. Wallace-Stevens","address":"3700 Jones Bridge Rd","telephone":"240-204-5280","s_id3":"415","type":"ES","schooltype":"ES","schoolyear":"2017-2018","trelateid":"114"},"geometry":{"type":"Point","coordinates":[-77.07340545580026,38.99891279512646]}},{"type":"Feature","properties":{"school":"Cold Spring ES","name":"Cold Spring","zip":"20854","gradeser":"K-5","fulltype":"Elementary Schools","address2":"-","objectid":"33","relateid":"115","s_id":"2380","schoolname":"Cold Spring","grade":"REG","exporttype":"Schools","principal":"Ms. Sandra S. Reece","address":"9201 Falls Chapel Way","telephone":"301-279-8480","s_id3":"238","type":"ES","schooltype":"ES","schoolyear":"2017-2018","trelateid":"115"},"geometry":{"type":"Point","coordinates":[-77.18860876662329,39.05918445190778]}},{"type":"Feature","properties":{"school":"Ritchie Park ES","name":"Ritchie Park","zip":"20854","gradeser":"K-5","fulltype":"Elementary Schools","address2":"-","objectid":"34","relateid":"116","s_id":"2270","schoolname":"Ritchie Park","grade":"REG","exporttype":"Schools","principal":"Ms. Catherine C. Long","address":"1514 Dunster Rd","telephone":"301-279-8475","s_id3":"227","type":"ES","schooltype":"ES","schoolyear":"2017-2018","trelateid":"116"},"geometry":{"type":"Point","coordinates":[-77.17441754639931,39.06290748634527]}},{"type":"Feature","properties":{"school":"Fallsmead ES","name":"Fallsmead","zip":"20850","gradeser":"K-5","fulltype":"Elementary Schools","address2":"-","objectid":"35","relateid":"117","s_id":"2330","schoolname":"Fallsmead","grade":"REG","exporttype":"Schools","principal":"Mrs. Roni S. Silverstein","address":"1800 Greenplace Ter","telephone":"240-740-3550","s_id3":"233","type":"ES","schooltype":"ES","schoolyear":"2017-2018","trelateid":"117"},"geometry":{"type":"Point","coordinates":[-77.17652136867204,39.07796060736697]}},{"type":"Feature","properties":{"school":"Lakewood ES","name":"Lakewood","zip":"20850","gradeser":"K-5","fulltype":"Elementary Schools","address2":"-","objectid":"36","relateid":"118","s_id":"2090","schoolname":"Lakewood","grade":"REG","exporttype":"Schools","principal":"Ms. Debra Berner","address":"2534 Lindley Ter","telephone":"301-279-8465","s_id3":"209","type":"ES","schooltype":"ES","schoolyear":"2017-2018","trelateid":"118"},"geometry":{"type":"Point","coordinates":[-77.19319975027481,39.08751412674044]}},{"type":"Feature","properties":{"school":"College Gardens ES","name":"College Gardens","zip":"20850","gradeser":"HS-5","fulltype":"Elementary Schools","address2":"-","objectid":"37","relateid":"119","s_id":"2290","schoolname":"College Gardens","grade":"REG","exporttype":"Schools","principal":"Mrs. Stacey F. Rogovoy","address":"1700 Yale Place","telephone":"301-279-8470","s_id3":"229","type":"ES","schooltype":"ES","schoolyear":"2017-2018","trelateid":"119"},"geometry":{"type":"Point","coordinates":[-77.16285085483604,39.102879882766075]}},{"type":"Feature","properties":{"school":"Maryvale ES","name":"Maryvale","zip":"20851","gradeser":"HS-5","fulltype":"Elementary Schools","address2":"-","objectid":"38","relateid":"120","s_id":"2100","schoolname":"Maryvale","grade":"REG","exporttype":"Schools","principal":"Mrs. Margaret (Susie) Prin","address":"1000 First St","telephone":"301-279-4990","s_id3":"210","type":"ES","schooltype":"ES","schoolyear":"2017-2018","trelateid":"120"},"geometry":{"type":"Point","coordinates":[-77.13678559417073,39.09131749762424]}},{"type":"Feature","properties":{"school":"Meadow Hall ES","name":"Meadow Hall","zip":"20851","gradeser":"K-5","fulltype":"Elementary Schools","address2":"-","objectid":"39","relateid":"121","s_id":"2120","schoolname":"Meadow Hall","grade":"REG","exporttype":"Schools","principal":"Mr. Cabell W. Lloyd","address":"951 Twinbrook Pky","telephone":"301-279-4988","s_id3":"212","type":"ES","schooltype":"ES","schoolyear":"2017-2018","trelateid":"121"},"geometry":{"type":"Point","coordinates":[-77.11645104973962,39.084395931799534]}},{"type":"Feature","properties":{"school":"Twinbrook ES","name":"Twinbrook","zip":"20851","gradeser":"HS-5","fulltype":"Elementary Schools","address2":"-","objectid":"40","relateid":"122","s_id":"2060","schoolname":"Twinbrook","grade":"REG","exporttype":"Schools","principal":"Mrs. Karen P. Johnson","address":"5911 Ridgeway Ave","telephone":"240-740-3450","s_id3":"206","type":"ES","schooltype":"ES","schoolyear":"2017-2018","trelateid":"122"},"geometry":{"type":"Point","coordinates":[-77.12014478369413,39.06857905821679]}},{"type":"Feature","properties":{"school":"Brookhaven ES","name":"Brookhaven","zip":"20853","gradeser":"HS-5","fulltype":"Elementary Schools","address2":"-","objectid":"41","relateid":"123","s_id":"8070","schoolname":"Brookhaven","grade":"REG","exporttype":"Schools","principal":"Xavier Kimber","address":"4610 Renn St","telephone":"240-740-0500","s_id3":"807","type":"ES","schooltype":"ES","schoolyear":"2017-2018","trelateid":"123"},"geometry":{"type":"Point","coordinates":[-77.09250720169884,39.08218035890063]}},{"type":"Feature","properties":{"school":"Rock Creek Valley ES","name":"Rock Creek Valley","zip":"20853","gradeser":"HS-5","fulltype":"Elementary Schools","address2":"-","objectid":"42","relateid":"124","s_id":"8190","schoolname":"Rock Creek Valley","grade":"REG","exporttype":"Schools","principal":"Mr. Kevin M. Burns","address":"5121 Russett Rd","telephone":"240-740-1240","s_id3":"819","type":"ES","schooltype":"ES","schoolyear":"2017-2018","trelateid":"124"},"geometry":{"type":"Point","coordinates":[-77.10258347860426,39.08299258444171]}},{"type":"Feature","properties":{"school":"Lucy V. Barnsley ES","name":"Barnsley","zip":"20853","gradeser":"K-5","fulltype":"Elementary Schools","address2":"-","objectid":"43","relateid":"125","s_id":"5050","schoolname":"Barnsley","grade":"REG","exporttype":"Schools","principal":"Mr. Andrew J. Winter","address":"14516 Nadine Dr","telephone":"240-740-3260","s_id3":"505","type":"ES","schooltype":"ES","schoolyear":"2017-2018","trelateid":"125"},"geometry":{"type":"Point","coordinates":[-77.10361974546116,39.094169015320595]}},{"type":"Feature","properties":{"school":"Flower Valley ES","name":"Flower Valley","zip":"20853","gradeser":"K-5","fulltype":"Elementary Schools","address2":"-","objectid":"44","relateid":"126","s_id":"5060","schoolname":"Flower Valley","grade":"REG","exporttype":"Schools","principal":"Mrs. Gay E. Melnick","address":"4615 Sunflower Dr","telephone":"240-740-1780","s_id3":"506","type":"ES","schooltype":"ES","schoolyear":"2017-2018","trelateid":"126"},"geometry":{"type":"Point","coordinates":[-77.09334779864436,39.10564782219274]}},{"type":"Feature","properties":{"school":"Harmony Hills ES","name":"Harmony Hills","zip":"20906","gradeser":"HS-5","fulltype":"Elementary Schools","address2":"-","objectid":"45","relateid":"127","s_id":"7970","schoolname":"Harmony Hills","grade":"REG","exporttype":"Schools","principal":"Dr. Carole E. Rawlison","address":"13407 Lydia St","telephone":"240-740-0780","s_id3":"797","type":"ES","schooltype":"ES","schoolyear":"2017-2018","trelateid":"127"},"geometry":{"type":"Point","coordinates":[-77.07615659220748,39.07668160741637]}},{"type":"Feature","properties":{"school":"Georgian Forest ES","name":"Georgian Forest","zip":"20906","gradeser":"HS-5","fulltype":"Elementary Schools","address2":"-","objectid":"46","relateid":"128","s_id":"7860","schoolname":"Georgian Forest","grade":"REG","exporttype":"Schools","principal":"Ms. Sundra Mann","address":"3100 Regina Dr","telephone":"240-740-0720","s_id3":"786","type":"ES","schooltype":"ES","schoolyear":"2017-2018","trelateid":"128"},"geometry":{"type":"Point","coordinates":[-77.0613926960578,39.07559384007318]}},{"type":"Feature","properties":{"school":"Strathmore ES","name":"Strathmore","zip":"20906","gradeser":"3-5","fulltype":"Elementary Schools","address2":"-","objectid":"47","relateid":"129","s_id":"8220","schoolname":"Strathmore","grade":"HIGH","exporttype":"Schools","principal":"Ms. Tivinia G. Nelson","address":"3200 Beaverwood La","telephone":"301-460-2135","s_id3":"822","type":"ES","schooltype":"ES","schoolyear":"2017-2018","trelateid":"129"},"geometry":{"type":"Point","coordinates":[-77.0655612856124,39.085970749511404]}},{"type":"Feature","properties":{"school":"Bel Pre ES","name":"Bel Pre","zip":"20906","gradeser":"K-2","fulltype":"Elementary Schools","address2":"-","objectid":"48","relateid":"130","s_id":"7800","schoolname":"Bel Pre","grade":"LOW","exporttype":"Schools","principal":"Ms. Dara Brooks","address":"13801 Rippling Brook Dr","telephone":"240-287-8870","s_id3":"780","type":"ES","schooltype":"ES","schoolyear":"2017-2018","trelateid":"130"},"geometry":{"type":"Point","coordinates":[-77.0548180843009,39.081471680261004]}},{"type":"Feature","properties":{"school":"Robert Frost MS","name":"Frost","zip":"20850","gradeser":"6-8","fulltype":"Middle Schools","address2":"-","objectid":"49","relateid":"131","s_id":"2370","schoolname":"Frost","grade":"N/A","exporttype":"Schools","principal":"Dr. Joey N. Jones","address":"9201 Scott Dr","telephone":"301-279-3949","s_id3":"237","type":"MS","schooltype":"MS","schoolyear":"2017-2018","trelateid":"131"},"geometry":{"type":"Point","coordinates":[-77.18733649708308,39.075918152761524]}},{"type":"Feature","properties":{"school":"Sherwood HS","name":"Sherwood","zip":"20860","gradeser":"9-12","fulltype":"High Schools","address2":"-","objectid":"50","relateid":"132","s_id":"5030","schoolname":"Sherwood","grade":"N/A","exporttype":"Schools","principal":"Mr. William M. Gregory","address":"300 Olney-Sandy Spring Rd","telephone":"301-924-3200","s_id3":"503","type":"HS","schooltype":"HS","schoolyear":"2017-2018","trelateid":"132"},"geometry":{"type":"Point","coordinates":[-77.01861945749971,39.148167488849765]}},{"type":"Feature","properties":{"school":"Bethesda?Chevy Chase HS","name":"Bethesda?Chevy Chase","zip":"20814","gradeser":"9-12","fulltype":"High Schools","address2":"-","objectid":"51","relateid":"133","s_id":"4060","schoolname":"Bethesda?Chevy Chase","grade":"N/A","exporttype":"Schools","principal":"Dr. Donna R. Jones","address":"4301 East-West Hwy","telephone":"240-740-0400","s_id3":"406","type":"HS","schooltype":"HS","schoolyear":"2017-2018","trelateid":"133"},"geometry":{"type":"Point","coordinates":[-77.0884942632133,38.9861288873735]}},{"type":"Feature","properties":{"school":"Winston Churchill HS","name":"Churchill","zip":"20854","gradeser":"9-12","fulltype":"High Schools","address2":"-","objectid":"52","relateid":"134","s_id":"6020","schoolname":"Churchill","grade":"N/A","exporttype":"Schools","principal":"Dr. Joan C. Benz","address":"11300 Gainsborough Rd","telephone":"301-469-1200","s_id3":"602","type":"HS","schooltype":"HS","schoolyear":"2017-2018","trelateid":"134"},"geometry":{"type":"Point","coordinates":[-77.1730536095888,39.04422299281623]}},{"type":"Feature","properties":{"school":"Damascus HS","name":"Damascus","zip":"20872","gradeser":"9-12","fulltype":"High Schools","address2":"-","objectid":"53","relateid":"135","s_id":"7010","schoolname":"Damascus","grade":"N/A","exporttype":"Schools","principal":"Ms. Casey B. Crouse","address":"25921 Ridge Rd","telephone":"240-207-2400","s_id3":"701","type":"HS","schooltype":"HS","schoolyear":"2017-2018","trelateid":"135"},"geometry":{"type":"Point","coordinates":[-77.21023228429186,39.28194046397157]}},{"type":"Feature","properties":{"school":"Walter Johnson HS","name":"Johnson","zip":"20814","gradeser":"9-12","fulltype":"High Schools","address2":"-","objectid":"54","relateid":"136","s_id":"4240","schoolname":"Johnson","grade":"N/A","exporttype":"Schools","principal":"Mrs. Jennifer A. Baker","address":"6400 Rock Spring Dr","telephone":"301-803-7100","s_id3":"424","type":"HS","schooltype":"HS","schoolyear":"2017-2018","trelateid":"136"},"geometry":{"type":"Point","coordinates":[-77.13032126714097,39.02577529862704]}},{"type":"Feature","properties":{"school":"Albert Einstein HS","name":"Einstein","zip":"20895","gradeser":"9-12","fulltype":"High Schools","address2":"-","objectid":"55","relateid":"137","s_id":"7890","schoolname":"Einstein","grade":"N/A","exporttype":"Schools","principal":"Mr. James G. Fernandez","address":"11135 Newport Mill Rd","telephone":"240-740-2700","s_id3":"789","type":"HS","schooltype":"HS","schoolyear":"2017-2018","trelateid":"137"},"geometry":{"type":"Point","coordinates":[-77.06701380330426,39.03906911483207]}},{"type":"Feature","properties":{"school":"John F. Kennedy HS","name":"Kennedy","zip":"20902","gradeser":"9-12","fulltype":"High Schools","address2":"-","objectid":"56","relateid":"138","s_id":"8150","schoolname":"Kennedy","grade":"N/A","exporttype":"Schools","principal":"Mr. Joe L. Rubens, Jr.","address":"1901 Randolph Rd","telephone":"240-740-0100","s_id3":"815","type":"HS","schooltype":"HS","schoolyear":"2017-2018","trelateid":"138"},"geometry":{"type":"Point","coordinates":[-77.03891855637077,39.06566998775632]}},{"type":"Feature","properties":{"school":"Col. Zadok Magruder HS","name":"Magruder","zip":"20855","gradeser":"9-12","fulltype":"High Schools","address2":"-","objectid":"57","relateid":"139","s_id":"5100","schoolname":"Magruder","grade":"N/A","exporttype":"Schools","principal":"Mr. Leroy (Lee) C. Evans","address":"5939 Muncaster Mill Rd","telephone":"301-840-4600","s_id3":"510","type":"HS","schooltype":"HS","schoolyear":"2017-2018","trelateid":"139"},"geometry":{"type":"Point","coordinates":[-77.1183703491272,39.13133921937601]}},{"type":"Feature","properties":{"school":"Quince Orchard HS","name":"Quince Orchard","zip":"20878","gradeser":"9-12","fulltype":"High Schools","address2":null,"objectid":"58","relateid":"140","s_id":"1250","schoolname":"Quince Orchard","grade":"N/A","exporttype":"Schools","principal":"Mrs. Carole A. Working","address":"15800 Quince Orchard Rd","telephone":"301-840-4686","s_id3":"125","type":"HS","schooltype":"HS","schoolyear":"2017-2018","trelateid":"140"},"geometry":{"type":"Point","coordinates":[-77.2541612446156,39.1159168346026]}},{"type":"Feature","properties":{"school":"Richard Montgomery HS","name":"Montgomery","zip":"20852","gradeser":"9-12","fulltype":"High Schools","address2":"-","objectid":"59","relateid":"141","s_id":"2010","schoolname":"Montgomery","grade":"N/A","exporttype":"Schools","principal":"Mr. Damon A. Monteleone","address":"250 Richard Montgomery Dr","telephone":"301-610-8000","s_id3":"201","type":"HS","schooltype":"HS","schoolyear":"2017-2018","trelateid":"141"},"geometry":{"type":"Point","coordinates":[-77.14616121354953,39.07741576791637]}},{"type":"Feature","properties":{"school":"Walt Whitman HS","name":"Whitman","zip":"20817","gradeser":"9-12","fulltype":"High Schools","address2":"-","objectid":"60","relateid":"142","s_id":"4270","schoolname":"Whitman","grade":"N/A","exporttype":"Schools","principal":"Dr. Alan S. Goodwin","address":"7100 Whittier Blvd","telephone":"301-320-6600","s_id3":"427","type":"HS","schooltype":"HS","schoolyear":"2017-2018","trelateid":"142"},"geometry":{"type":"Point","coordinates":[-77.12766202970748,38.98184501302464]}},{"type":"Feature","properties":{"school":"Watkins Mill HS","name":"Watkins Mill","zip":"20879","gradeser":"9-12","fulltype":"High Schools","address2":"-","objectid":"61","relateid":"143","s_id":"5450","schoolname":"Watkins Mill","grade":"N/A","exporttype":"Schools","principal":"Ms. Carol L. Goddard","address":"10301 Apple Ridge Rd","telephone":"301-284-4400","s_id3":"545","type":"HS","schooltype":"HS","schoolyear":"2017-2018","trelateid":"143"},"geometry":{"type":"Point","coordinates":[-77.21619708741119,39.18376993493434]}},{"type":"Feature","properties":{"school":"Thomas S. Wootton HS","name":"Wootton","zip":"20850","gradeser":"9-12","fulltype":"High Schools","address2":"-","objectid":"62","relateid":"144","s_id":"2340","schoolname":"Wootton","grade":"N/A","exporttype":"Schools","principal":"Ms. Kimberly M. Boldon","address":"2100 Wootton Pky","telephone":"240-740-1500","s_id3":"234","type":"HS","schooltype":"HS","schoolyear":"2017-2018","trelateid":"144"},"geometry":{"type":"Point","coordinates":[-77.1830396071832,39.07683272070521]}},{"type":"Feature","properties":{"school":"Gaithersburg HS","name":"Gaithersburg","zip":"20877","gradeser":"9-12","fulltype":"High Schools","address2":"-","objectid":"63","relateid":"145","s_id":"5510","schoolname":"Gaithersburg","grade":"N/A","exporttype":"Schools","principal":"Dr. Christine C. Handy","address":"314 S Frederick Ave","telephone":"301-284-4500","s_id3":"551","type":"HS","schooltype":"HS","schoolyear":"2017-2018","trelateid":"145"},"geometry":{"type":"Point","coordinates":[-77.1955457901265,39.13488223396356]}},{"type":"Feature","properties":{"school":"Paint Branch HS","name":"Paint Branch","zip":"20866","gradeser":"9-12","fulltype":"High Schools","address2":"-","objectid":"64","relateid":"146","s_id":"3150","schoolname":"Paint Branch","grade":"N/A","exporttype":"Schools","principal":"Dr. Myriam A. Yarbrough","address":"14121 Old Columbia Pik","telephone":"301-388-9900","s_id3":"315","type":"HS","schooltype":"HS","schoolyear":"2017-2018","trelateid":"146"},"geometry":{"type":"Point","coordinates":[-76.94681105089617,39.08862525641297]}},{"type":"Feature","properties":{"school":"Eastern MS","name":"Eastern","zip":"20901","gradeser":"6-8","fulltype":"Middle Schools","address2":"-","objectid":"65","relateid":"147","s_id":"7750","schoolname":"Eastern","grade":"N/A","exporttype":"Schools","principal":"Mr. Matthew D. Johnson","address":"300 University Blvd E","telephone":"301-650-6650","s_id3":"775","type":"MS","schooltype":"MS","schoolyear":"2017-2018","trelateid":"147"},"geometry":{"type":"Point","coordinates":[-77.00096615193684,39.01195773550201]}},{"type":"Feature","properties":{"school":"Col. E. Brooke Lee MS","name":"Lee","zip":"20902","gradeser":"6-8","fulltype":"Middle Schools","address2":"-","objectid":"66","relateid":"148","s_id":"8180","schoolname":"Lee","grade":"N/A","exporttype":"Schools","principal":"Mrs. Kimberly N. Hayden-Williams","address":"11800 Monticello Ave","telephone":"301-649-8100","s_id3":"818","type":"MS","schooltype":"MS","schoolyear":"2017-2018","trelateid":"148"},"geometry":{"type":"Point","coordinates":[-77.03049353975173,39.04982823763064]}},{"type":"Feature","properties":{"school":"Julius West MS","name":"West","zip":"20850","gradeser":"6-8","fulltype":"Middle Schools","address2":"-","objectid":"67","relateid":"149","s_id":"2110","schoolname":"West","grade":"N/A","exporttype":"Schools","principal":"Mr. Craig W. Staton","address":"651 Falls Rd","telephone":"301-337-3400","s_id3":"211","type":"MS","schooltype":"MS","schoolyear":"2017-2018","trelateid":"149"},"geometry":{"type":"Point","coordinates":[-77.16395987185363,39.07685064744383]}},{"type":"Feature","properties":{"school":"Argyle MS","name":"Argyle","zip":"20906","gradeser":"6-8","fulltype":"Middle Schools","address2":null,"objectid":"68","relateid":"150","s_id":"8230","schoolname":"Argyle","grade":"N/A","exporttype":"Schools","principal":"Mr. James K. Allrich","address":"2400 Bel Pre Rd","telephone":"301-460-2400","s_id3":"823","type":"MS","schooltype":"MS","schoolyear":"2017-2018","trelateid":"150"},"geometry":{"type":"Point","coordinates":[-77.04879101876286,39.089193118754515]}},{"type":"Feature","properties":{"school":"Benjamin Banneker MS","name":"Banneker","zip":"20866","gradeser":"6-8","fulltype":"Middle Schools","address2":"-","objectid":"69","relateid":"151","s_id":"3330","schoolname":"Banneker","grade":"N/A","exporttype":"Schools","principal":"Dr. Otis L. Lee, III","address":"14800 Perrywood Dr","telephone":"301-989-5747","s_id3":"333","type":"MS","schooltype":"MS","schoolyear":"2017-2018","trelateid":"151"},"geometry":{"type":"Point","coordinates":[-76.94819990498986,39.095733600248266]}},{"type":"Feature","properties":{"school":"Briggs Chaney MS","name":"Briggs Chaney","zip":"20904","gradeser":"6-8","fulltype":"Middle Schools","address2":"-","objectid":"70","relateid":"152","s_id":"3350","schoolname":"Briggs Chaney","grade":"N/A","exporttype":"Schools","principal":"Dr. Tamitha Campbell","address":"1901 Rainbow Dr","telephone":"301-288-8300","s_id3":"335","type":"MS","schooltype":"MS","schoolyear":"2017-2018","trelateid":"152"},"geometry":{"type":"Point","coordinates":[-76.97076320935017,39.10975150342693]}},{"type":"Feature","properties":{"school":"Earle B. Wood MS","name":"Wood","zip":"20853","gradeser":"6-8","fulltype":"Middle Schools","address2":"-","objectid":"71","relateid":"153","s_id":"8200","schoolname":"Wood","grade":"N/A","exporttype":"Schools","principal":"Ms. Heidi Slatcoff","address":"14615 Bauer Rd","telephone":"301-460-2150","s_id3":"820","type":"MS","schooltype":"MS","schoolyear":"2017-2018","trelateid":"153"},"geometry":{"type":"Point","coordinates":[-77.10751204245938,39.09337123388292]}},{"type":"Feature","properties":{"school":"Francis Scott Key MS","name":"Key","zip":"20903","gradeser":"6-8","fulltype":"Middle Schools","address2":"-","objectid":"72","relateid":"154","s_id":"3110","schoolname":"Key","grade":"N/A","exporttype":"Schools","principal":"Dr. Yolanda Stanislaus","address":"910 Schindler Dr","telephone":"301-422-5600","s_id3":"311","type":"MS","schooltype":"MS","schoolyear":"2017-2018","trelateid":"154"},"geometry":{"type":"Point","coordinates":[-76.9921754809467,39.02762027987111]}},{"type":"Feature","properties":{"school":"Gaithersburg MS","name":"Gaithersburg","zip":"20877","gradeser":"6-8","fulltype":"Middle Schools","address2":"-","objectid":"73","relateid":"155","s_id":"5540","schoolname":"Gaithersburg","grade":"N/A","exporttype":"Schools","principal":"Mrs. Ann B. Dolan-Ridner","address":"2 Teachers Way","telephone":"301-840-4554","s_id3":"554","type":"MS","schooltype":"MS","schoolyear":"2017-2018","trelateid":"155"},"geometry":{"type":"Point","coordinates":[-77.18776415421115,39.1439085793848]}},{"type":"Feature","properties":{"school":"Herbert Hoover MS","name":"Hoover","zip":"20854","gradeser":"6-8","fulltype":"Middle Schools","address2":"-","objectid":"74","relateid":"156","s_id":"2280","schoolname":"Hoover","grade":"N/A","exporttype":"Schools","principal":"Mrs. Yong-Mi Kim","address":"8810 Post Oak Rd","telephone":"301-968-3740","s_id3":"228","type":"MS","schooltype":"MS","schoolyear":"2017-2018","trelateid":"156"},"geometry":{"type":"Point","coordinates":[-77.17864951230948,39.0447312248922]}},{"type":"Feature","properties":{"school":"Cabin John MS","name":"Cabin John","zip":"20854","gradeser":"6-8","fulltype":"Middle Schools","address2":"-","objectid":"75","relateid":"157","s_id":"6060","schoolname":"Cabin John","grade":"N/A","exporttype":"Schools","principal":"Mr. John W. Taylor","address":"10701 Gainsborough Rd","telephone":"240-406-1600","s_id3":"606","type":"MS","schooltype":"MS","schoolyear":"2017-2018","trelateid":"157"},"geometry":{"type":"Point","coordinates":[-77.17214601633789,39.03156055861865]}},{"type":"Feature","properties":{"school":"Bells Mill ES","name":"Bells Mill","zip":"20854","gradeser":"K-5","fulltype":"Elementary Schools","address2":"-","objectid":"76","relateid":"158","s_id":"6070","schoolname":"Bells Mill","grade":"REG","exporttype":"Schools","principal":"Mrs. Jerri Olgesby","address":"8225 Bells Mill Rd","telephone":"240-740-0480","s_id3":"607","type":"ES","schooltype":"ES","schoolyear":"2017-2018","trelateid":"158"},"geometry":{"type":"Point","coordinates":[-77.1687890012738,39.03194894068097]}},{"type":"Feature","properties":{"school":"John T Baker MS","name":"Baker","zip":"20872","gradeser":"6-8","fulltype":"Middle Schools","address2":"-","objectid":"77","relateid":"159","s_id":"7050","schoolname":"Baker","grade":"N/A","exporttype":"Schools","principal":"Dr. Louise J. Worthington","address":"25400 Oak Dr","telephone":"240-207-2440","s_id3":"705","type":"MS","schooltype":"MS","schoolyear":"2017-2018","trelateid":"159"},"geometry":{"type":"Point","coordinates":[-77.21863287426629,39.27404480707453]}},{"type":"Feature","properties":{"school":"Montgomery Village MS","name":"Montgomery Village","zip":"20886","gradeser":"6-8","fulltype":"Middle Schools","address2":"-","objectid":"78","relateid":"160","s_id":"5570","schoolname":"Montgomery Village","grade":"N/A","exporttype":"Schools","principal":"Ms. Kisha Logan","address":"19300 Watkins Mill Rd","telephone":"301-840-4660","s_id3":"557","type":"MS","schooltype":"MS","schoolyear":"2017-2018","trelateid":"160"},"geometry":{"type":"Point","coordinates":[-77.20931466725646,39.172496873945754]}},{"type":"Feature","properties":{"school":"Parkland MS","name":"Parkland","zip":"20853","gradeser":"6-8","fulltype":"Middle Schools","address2":"-","objectid":"79","relateid":"161","s_id":"8120","schoolname":"Parkland","grade":"N/A","exporttype":"Schools","principal":"Mrs. Khanny Yang","address":"4610 W Frankfort Dr","telephone":"301-438-5700","s_id3":"812","type":"MS","schooltype":"MS","schoolyear":"2017-2018","trelateid":"161"},"geometry":{"type":"Point","coordinates":[-77.0917639723142,39.08400990564269]}},{"type":"Feature","properties":{"school":"Redland MS","name":"Redland","zip":"20855","gradeser":"6-8","fulltype":"Middle Schools","address2":"-","objectid":"80","relateid":"162","s_id":"5620","schoolname":"Redland","grade":"N/A","exporttype":"Schools","principal":"Mr. Everett M. Davis","address":"6505 Muncaster Mill Rd","telephone":"240-740-0900","s_id3":"562","type":"MS","schooltype":"MS","schoolyear":"2017-2018","trelateid":"162"},"geometry":{"type":"Point","coordinates":[-77.13224259652672,39.14057028981386]}},{"type":"Feature","properties":{"school":"Ridgeview MS","name":"Ridgeview","zip":"20878","gradeser":"6-8","fulltype":"Middle Schools","address2":"-","objectid":"81","relateid":"163","s_id":"1050","schoolname":"Ridgeview","grade":"N/A","exporttype":"Schools","principal":"Mr. Daniel E. Garcia","address":"16600 Raven Rock Dr","telephone":"240-406-1300","s_id3":"105","type":"MS","schooltype":"MS","schoolyear":"2017-2018","trelateid":"163"},"geometry":{"type":"Point","coordinates":[-77.24933269437334,39.12770648216011]}},{"type":"Feature","properties":{"school":"Rachel Carson ES","name":"Carson","zip":"20878","gradeser":"HS-5","fulltype":"Elementary Schools","address2":null,"objectid":"82","relateid":"164","s_id":"1590","schoolname":"Carson","grade":"REG","exporttype":"Schools","principal":"M. Deneise Hammond","address":"100 Tschiffely Square Rd","telephone":"240-740-1840","s_id3":"159","type":"ES","schooltype":"ES","schoolyear":"2017-2018","trelateid":"164"},"geometry":{"type":"Point","coordinates":[-77.24669543497882,39.117013775736716]}},{"type":"Feature","properties":{"school":"Rosa Parks MS","name":"Parks","zip":"20832","gradeser":"6-8","fulltype":"Middle Schools","address2":"-","objectid":"83","relateid":"165","s_id":"1550","schoolname":"Parks","grade":"N/A","exporttype":"Schools","principal":"Mrs. Jewel A. Sanders","address":"19200 Olney Mill Rd","telephone":"301-924-3180","s_id3":"155","type":"MS","schooltype":"MS","schoolyear":"2017-2018","trelateid":"165"},"geometry":{"type":"Point","coordinates":[-77.08140712650363,39.17192121174353]}},{"type":"Feature","properties":{"school":"Sligo MS","name":"Sligo","zip":"20902","gradeser":"6-8","fulltype":"Middle Schools","address2":"-","objectid":"84","relateid":"166","s_id":"7780","schoolname":"Sligo","grade":"N/A","exporttype":"Schools","principal":"Mr. Cary D. Dimmick","address":"1401 Dennis Ave","telephone":"301-287-8890","s_id3":"778","type":"MS","schooltype":"MS","schoolyear":"2017-2018","trelateid":"166"},"geometry":{"type":"Point","coordinates":[-77.03303269067224,39.026660604342396]}},{"type":"Feature","properties":{"school":"Takoma Park MS","name":"Takoma Park","zip":"20910","gradeser":"6-8","fulltype":"Middle Schools","address2":"-","objectid":"85","relateid":"167","s_id":"7550","schoolname":"Takoma Park","grade":"N/A","exporttype":"Schools","principal":"Miss Alicia M. Deeny","address":"7611 Piney Branch Rd","telephone":"301-650-6444","s_id3":"755","type":"MS","schooltype":"MS","schoolyear":"2017-2018","trelateid":"167"},"geometry":{"type":"Point","coordinates":[-77.01262027761217,38.98537783900465]}},{"type":"Feature","properties":{"school":"Thomas W. Pyle MS","name":"Pyle","zip":"20817","gradeser":"6-8","fulltype":"Middle Schools","address2":"-","objectid":"86","relateid":"168","s_id":"4280","schoolname":"Pyle","grade":"N/A","exporttype":"Schools","principal":"Mr. Christopher B. Nardi","address":"6311 Wilson La","telephone":"301-320-6540","s_id3":"428","type":"MS","schooltype":"MS","schoolyear":"2017-2018","trelateid":"168"},"geometry":{"type":"Point","coordinates":[-77.13006350976629,38.98890931188895]}},{"type":"Feature","properties":{"school":"Tilden MS","name":"Tilden","zip":"20852","gradeser":"6-8","fulltype":"Middle Schools","address2":"-","objectid":"87","relateid":"169","s_id":"2320","schoolname":"Tilden","grade":"N/A","exporttype":"Schools","principal":"Mrs. Irina LaGrange","address":"11211 Old Georgetown Rd","telephone":"301-230-5930","s_id3":"232","type":"MS","schooltype":"MS","schoolyear":"2017-2018","trelateid":"169"},"geometry":{"type":"Point","coordinates":[-77.12200179093095,39.03837982467809]}},{"type":"Feature","properties":{"school":"William H. Farquhar MS","name":"Farquhar","zip":"20832","gradeser":"6-8","fulltype":"Middle Schools","address2":"-","objectid":"88","relateid":"170","s_id":"5070","schoolname":"Farquhar","grade":"N/A","exporttype":"Schools","principal":"Mr. Joel L. Beidleman","address":"17017 Batchellors Forest Rd","telephone":"240-740-1200","s_id3":"507","type":"MS","schooltype":"MS","schoolyear":"2017-2018","trelateid":"170"},"geometry":{"type":"Point","coordinates":[-77.04530605379172,39.134155060150945]}},{"type":"Feature","properties":{"school":"White Oak MS","name":"White Oak","zip":"20904","gradeser":"6-8","fulltype":"Middle Schools","address2":"-","objectid":"89","relateid":"171","s_id":"8110","schoolname":"White Oak","grade":"N/A","exporttype":"Schools","principal":"Ms. Virginia A. de los Santos","address":"12201 New Hampshire Ave","telephone":"301-288-8200","s_id3":"811","type":"MS","schooltype":"MS","schoolyear":"2017-2018","trelateid":"171"},"geometry":{"type":"Point","coordinates":[-76.99556181689016,39.05652533361569]}},{"type":"Feature","properties":{"school":"Springbrook HS","name":"Springbrook","zip":"20904","gradeser":"9-12","fulltype":"High Schools","address2":"-","objectid":"90","relateid":"172","s_id":"7980","schoolname":"Springbrook","grade":"N/A","exporttype":"Schools","principal":"Dr. Arthur Williams","address":"201 Valleybrook Dr","telephone":"301-989-5700","s_id3":"798","type":"HS","schooltype":"HS","schoolyear":"2017-2018","trelateid":"172"},"geometry":{"type":"Point","coordinates":[-77.00596812498475,39.057966928907675]}},{"type":"Feature","properties":{"school":"RICA","name":"RICA","zip":"20850","gradeser":"N/A-N/A","fulltype":"Special Schools","address2":"-","objectid":"92","relateid":"174","s_id":"9650","schoolname":"RICA","grade":"N/A","exporttype":"Schools","principal":"Joshua Munsey","address":"15000 Broschart Rd","telephone":"301-251-6900","s_id3":"965","type":"SP","schooltype":"SP","schoolyear":"2017-2018","trelateid":"174"},"geometry":{"type":"Point","coordinates":[-77.20283391117005,39.10295870221637]}},{"type":"Feature","properties":{"school":"Rock Terrace School","name":"Rock Terrace","zip":"20850","gradeser":"N/A-N/A","fulltype":"Special Schools","address2":"-","objectid":"93","relateid":"175","s_id":"9160","schoolname":"Rock Terrace","grade":"N/A","exporttype":"Schools","principal":"Mrs. Katherine (Kathy) W. Lertora","address":"390 Martins La","telephone":"301-279-4940","s_id3":"916","type":"SP","schooltype":"SP","schoolyear":"2017-2018","trelateid":"175"},"geometry":{"type":"Point","coordinates":[-77.16009346661819,39.09359362654195]}},{"type":"Feature","properties":{"school":"Stephen Knolls School","name":"Stephen Knolls","zip":"20895","gradeser":"N/A-N/A","fulltype":"Special Schools","address2":"-","objectid":"94","relateid":"176","s_id":"7990","schoolname":"Stephen Knolls","grade":"N/A","exporttype":"Schools","principal":"Ms. Kim M. Redgrave","address":"10731 St Margaret's Way","telephone":"240-740-0050","s_id3":"799","type":"SP","schooltype":"SP","schoolyear":"2017-2018","trelateid":"176"},"geometry":{"type":"Point","coordinates":[-77.05170440479536,39.033897012021136]}},{"type":"Feature","properties":{"school":"Carl Sandburg Learning Center","name":"Sandburg","zip":"20851","gradeser":"K-6","fulltype":"Special Schools","address2":"-","objectid":"95","relateid":"177","s_id":"2150","schoolname":"Sandburg","grade":"N/A","exporttype":"Schools","principal":"Ms. Marlene R. Kenny","address":"451 Meadow Hall Dr","telephone":"301-279-8490","s_id3":"215","type":"SP","schooltype":"SP","schoolyear":"2017-2018","trelateid":"177"},"geometry":{"type":"Point","coordinates":[-77.11005487357595,39.07630526381879]}},{"type":"Feature","properties":{"school":"Poolesville HS","name":"Poolesville","zip":"20837","gradeser":"9-12","fulltype":"High Schools","address2":"-","objectid":"99","relateid":"181","s_id":"1520","schoolname":"Poolesville","grade":"N/A","exporttype":"Schools","principal":"Miss Deena Levine","address":"17501 Willard Rd","telephone":"240-740-2400","s_id3":"152","type":"HS","schooltype":"HS","schoolyear":"2017-2018","trelateid":"181"},"geometry":{"type":"Point","coordinates":[-77.41854327008718,39.143428685343466]}},{"type":"Feature","properties":{"school":"Seneca Valley HS","name":"Seneca Valley","zip":"20874","gradeser":"9-12","fulltype":"High Schools","address2":"-","objectid":"100","relateid":"182","s_id":"1040","schoolname":"Seneca Valley","grade":"N/A","exporttype":"Schools","principal":"Mr. Marc J. Cohen","address":"12700 Middlebrook Rd","telephone":"301-353-8000","s_id3":"104","type":"HS","schooltype":"HS","schoolyear":"2017-2018","trelateid":"182"},"geometry":{"type":"Point","coordinates":[-77.2644317662597,39.175171965012886]}},{"type":"Feature","properties":{"school":"Westland MS","name":"Westland","zip":"20816","gradeser":"6-8","fulltype":"Middle Schools","address2":"-","objectid":"101","relateid":"183","s_id":"4120","schoolname":"Westland","grade":"N/A","exporttype":"Schools","principal":"Ms. Alison L. Serino","address":"5511 Massachusetts Ave","telephone":"301-320-6515","s_id3":"412","type":"MS","schooltype":"MS","schoolyear":"2017-2018","trelateid":"183"},"geometry":{"type":"Point","coordinates":[-77.10901885295887,38.96029912575278]}},{"type":"Feature","properties":{"school":"Northwest HS","name":"Northwest","zip":"20874","gradeser":"9-12","fulltype":"High Schools","address2":"-","objectid":"102","relateid":"184","s_id":"2460","schoolname":"Northwest","grade":"N/A","exporttype":"Schools","principal":"Mr. James (Jimmy) D'Andrea","address":"13501 Richter Farm Rd","telephone":"301-601-4660","s_id3":"246","type":"HS","schooltype":"HS","schoolyear":"2017-2018","trelateid":"184"},"geometry":{"type":"Point","coordinates":[-77.27963779519591,39.151733075428794]}},{"type":"Feature","properties":{"school":"Kingsview MS","name":"Kingsview","zip":"20874","gradeser":"6-8","fulltype":"Middle Schools","address2":"-","objectid":"103","relateid":"185","s_id":"7080","schoolname":"Kingsview","grade":"N/A","exporttype":"Schools","principal":"Mrs. Dyan L. Harrison","address":"18909 Kingsview Rd","telephone":"301-601-4611","s_id3":"708","type":"MS","schooltype":"MS","schoolyear":"2017-2018","trelateid":"185"},"geometry":{"type":"Point","coordinates":[-77.28481945757649,39.166135878471636]}},{"type":"Feature","properties":{"school":"Forest Oak MS","name":"Forest Oak","zip":"20877","gradeser":"6-8","fulltype":"Middle Schools","address2":"-","objectid":"104","relateid":"186","s_id":"2480","schoolname":"Forest Oak","grade":"N/A","exporttype":"Schools","principal":"Mr. Shahid A. Muhammad","address":"651 Saybrooke Oaks Blvd","telephone":"301-670-8242","s_id3":"248","type":"MS","schooltype":"MS","schoolyear":"2017-2018","trelateid":"186"},"geometry":{"type":"Point","coordinates":[-77.18495302799698,39.153736741881595]}},{"type":"Feature","properties":{"school":"John Poole MS","name":"Poole","zip":"20837","gradeser":"6-8","fulltype":"Middle Schools","address2":"-","objectid":"105","relateid":"187","s_id":"2470","schoolname":"Poole","grade":"N/A","exporttype":"Schools","principal":"Mr. Jon Green","address":"17014 Tom Fox Ave","telephone":"301-972-7979","s_id3":"247","type":"MS","schooltype":"MS","schoolyear":"2017-2018","trelateid":"187"},"geometry":{"type":"Point","coordinates":[-77.41084581774622,39.12589722058826]}},{"type":"Feature","properties":{"school":"Montgomery Blair HS","name":"Blair","zip":"20901","gradeser":"9-12","fulltype":"High Schools","address2":"-","objectid":"106","relateid":"188","s_id":"7570","schoolname":"Blair","grade":"N/A","exporttype":"Schools","principal":"Mrs. Renay C. Johnson","address":"51 University Blvd E","telephone":"301-649-2800","s_id3":"757","type":"HS","schooltype":"HS","schoolyear":"2017-2018","trelateid":"188"},"geometry":{"type":"Point","coordinates":[-77.01186407705066,39.01823183441121]}},{"type":"Feature","properties":{"school":"Shady Grove MS","name":"Shady Grove","zip":"20877","gradeser":"6-8","fulltype":"Middle Schools","address2":"-","objectid":"107","relateid":"189","s_id":"5210","schoolname":"Shady Grove","grade":"N/A","exporttype":"Schools","principal":"Dr. Alana D Murray","address":"8100 Mid-County Hwy","telephone":"240-740-1440","s_id3":"521","type":"MS","schooltype":"MS","schoolyear":"2017-2018","trelateid":"189"},"geometry":{"type":"Point","coordinates":[-77.16258238896773,39.14307520306919]}},{"type":"Feature","properties":{"school":"North Bethesda MS","name":"North Bethesda","zip":"20817","gradeser":"6-8","fulltype":"Middle Schools","address2":"-","objectid":"108","relateid":"190","s_id":"4130","schoolname":"North Bethesda","grade":"N/A","exporttype":"Schools","principal":"Mr. Alton E. Sumner","address":"8935 Bradmoor Dr","telephone":"240-740-2100","s_id3":"413","type":"MS","schooltype":"MS","schoolyear":"2017-2018","trelateid":"190"},"geometry":{"type":"Point","coordinates":[-77.12482267364013,39.0044587237873]}},{"type":"Feature","properties":{"school":"Silver Spring International MS","name":"Silver Spring International","zip":"20910","gradeser":"6-8","fulltype":"Middle Schools","address2":"-","objectid":"109","relateid":"191","s_id":"6470","schoolname":"Silver Spring International","grade":"N/A","exporttype":"Schools","principal":"Ms. Karen Y. Bryant","address":"313 Wayne Ave","telephone":"240-740-2750","s_id3":"647","type":"MS","schooltype":"MS","schoolyear":"2017-2018","trelateid":"191"},"geometry":{"type":"Point","coordinates":[-77.01529160776028,39.000151095353665]}},{"type":"Feature","properties":{"school":"Sligo Creek ES","name":"Sligo Creek","zip":"20910","gradeser":"K-5","fulltype":"Elementary Schools","address2":"-","objectid":"110","relateid":"192","s_id":"5170","schoolname":"Sligo Creek","grade":"REG","exporttype":"Schools","principal":"Mrs. Diantha R. Swift","address":"500 Schuyler Rd","telephone":"240-740-2800","s_id3":"517","type":"ES","schooltype":"ES","schoolyear":"2017-2018","trelateid":"192"},"geometry":{"type":"Point","coordinates":[-77.01531028810027,39.000665529412274]}},{"type":"Feature","properties":{"school":"Neelsville MS","name":"Neelsville","zip":"20876","gradeser":"6-8","fulltype":"Middle Schools","address2":"-","objectid":"111","relateid":"193","s_id":"1150","schoolname":"Neelsville","grade":"N/A","exporttype":"Schools","principal":"Ms. Vicky Lake-Parcan","address":"11700 Neelsville Church Rd","telephone":"301-353-8064","s_id3":"115","type":"MS","schooltype":"MS","schoolyear":"2017-2018","trelateid":"193"},"geometry":{"type":"Point","coordinates":[-77.24059725713086,39.19413632904023]}},{"type":"Feature","properties":{"school":"Roberto Clemente MS","name":"Clemente","zip":"20874","gradeser":"6-8","fulltype":"Middle Schools","address2":"-","objectid":"112","relateid":"194","s_id":"1570","schoolname":"Clemente","grade":"N/A","exporttype":"Schools","principal":"Mr. Jeffrey T. Brown","address":"18808 Waring Station Rd","telephone":"301-284-4750","s_id3":"157","type":"MS","schooltype":"MS","schoolyear":"2017-2018","trelateid":"194"},"geometry":{"type":"Point","coordinates":[-77.24807155393562,39.165784805385755]}},{"type":"Feature","properties":{"school":"Clarksburg HS","name":"Clarksburg","zip":"20871","gradeser":"9-12","fulltype":"High Schools","address2":null,"objectid":"113","relateid":"195","s_id":"2490","schoolname":"Clarksburg","grade":"N/A","exporttype":"Schools","principal":"Dr. Edward K. Owusu","address":"22500 Wims Rd","telephone":"301-444-3000","s_id3":"249","type":"HS","schooltype":"HS","schoolyear":"2017-2018","trelateid":"195"},"geometry":{"type":"Point","coordinates":[-77.26584314581946,39.225509004638106]}},{"type":"Feature","properties":{"school":"Martin Luther King, Jr MS","name":"King","zip":"20872","gradeser":"6-8","fulltype":"Middle Schools","address2":"-","objectid":"114","relateid":"196","s_id":"1070","schoolname":"King","grade":"N/A","exporttype":"Schools","principal":"Mr. Christopher A. Wynne","address":"13737 Wisteria Dr","telephone":"301-353-8080","s_id3":"107","type":"MS","schooltype":"MS","schoolyear":"2017-2018","trelateid":"196"},"geometry":{"type":"Point","coordinates":[-77.2851711437434,39.18083252740912]}},{"type":"Feature","properties":{"school":"Wheaton HS","name":"Wheaton","zip":"20906","gradeser":"9-12","fulltype":"High Schools","address2":"-","objectid":"115","relateid":"197","s_id":"7820","schoolname":"Wheaton","grade":"N/A","exporttype":"Schools","principal":"Dr. Debra K. Mugge","address":"12601 Dalewood Dr","telephone":"301-321-3400","s_id3":"782","type":"HS","schooltype":"HS","schoolyear":"2017-2018","trelateid":"197"},"geometry":{"type":"Point","coordinates":[-77.06683409171053,39.06121267638045]}},{"type":"Feature","properties":{"school":"James Blake HS","name":"Blake","zip":"20905","gradeser":"9-12","fulltype":"High Schools","address2":"-","objectid":"116","relateid":"198","s_id":"3210","schoolname":"Blake","grade":"N/A","exporttype":"Schools","principal":"Robert Sinclair, Jr.","address":"300 Norwood Rd","telephone":"240-740-1400","s_id3":"321","type":"HS","schooltype":"HS","schoolyear":"2017-2018","trelateid":"198"},"geometry":{"type":"Point","coordinates":[-77.0175940860958,39.11331476086722]}},{"type":"Feature","properties":{"school":"Rockville HS","name":"Rockville","zip":"20851","gradeser":"9-12","fulltype":"High Schools","address2":"-","objectid":"117","relateid":"199","s_id":"2300","schoolname":"Rockville","grade":"N/A","exporttype":"Schools","principal":"Ms. Billiejean (Billie-Jean) Bensen","address":"2100 Baltimore Rd","telephone":"301-517-8105","s_id3":"230","type":"HS","schooltype":"HS","schoolyear":"2017-2018","trelateid":"199"},"geometry":{"type":"Point","coordinates":[-77.11838128332464,39.0869437644124]}},{"type":"Feature","properties":{"school":"Northwood HS","name":"Northwood","zip":"20901","gradeser":"9-12","fulltype":"High Schools","address2":null,"objectid":"133","relateid":"226","s_id":"7960","schoolname":"Northwood","grade":"N/A","exporttype":"Schools","principal":"Mrs. Mildred L. Charley-Greene","address":"919 University Blvd E","telephone":"301-649-8088","s_id3":"796","type":"HS","schooltype":"HS","schoolyear":"2017-2018","trelateid":"226"},"geometry":{"type":"Point","coordinates":[-77.02245298597721,39.03571747981917]}},{"type":"Feature","properties":{"school":"Longview School","name":"Longview","zip":"20874","gradeser":"N/A","fulltype":"Elementary Schools","address2":null,"objectid":"999","relateid":"0","s_id":"9510","schoolname":"Longview","grade":"REG","exporttype":"Schools","principal":"Mrs. Sarah C. Starr","address":"13900 Bromfield Rd","telephone":"301-601-4830","s_id3":"951","type":"SP","schooltype":"SP","schoolyear":"2017-2018","trelateid":"0"},"geometry":{"type":"Point","coordinates":[-77.29272475141119,39.150576076044835]}},{"type":"Feature","properties":{"school":"Little Bennett ES","name":"Little Bennett","zip":"20871","gradeser":"K-5","fulltype":"Elementary Schools","address2":null,"objectid":"155","relateid":"256","s_id":"3360","schoolname":"Little Bennett","grade":"N/A","exporttype":"Schools","principal":"Mr. Shawn D. Miller","address":"23930 Burdette Forest Rd","telephone":"301-540-5535","s_id3":"336","type":"ES","schooltype":"ES","schoolyear":"2017-2018","trelateid":"256"},"geometry":{"type":"Point","coordinates":[-77.27546992214032,39.24615293298981]}},{"type":"Feature","properties":{"school":"Arcola ES","name":"Arcola","zip":"20902","gradeser":"K-5","fulltype":"Elementary Schools","address2":null,"objectid":"169","relateid":"269","s_id":"7900","schoolname":"Arcola","grade":"N/A","exporttype":"Schools","principal":"Mr. Emmanuel J. Jean-Philippe","address":"1820 Franwall Ave","telephone":"301-287-8585","s_id3":"790","type":"ES","schooltype":"ES","schoolyear":"2017-2018","trelateid":"269"},"geometry":{"type":"Point","coordinates":[-77.03937484845378,39.04553330732159]}},{"type":"Feature","properties":{"school":"Sargent Shriver ES","name":"Sargent Shriver","zip":"20906","gradeser":"K-5","fulltype":"Elementary Schools","address2":null,"objectid":"177","relateid":"277","s_id":"7790","schoolname":"Sargent Shriver","grade":"N/A","exporttype":"Schools","principal":"Mrs. Zoraida E. Brown","address":"12518 Greenly St","telephone":"301-929-4426","s_id3":"779","type":"ES","schooltype":"ES","schoolyear":"2017-2018","trelateid":"277"},"geometry":{"type":"Point","coordinates":[-77.0793281930647,39.06160506310318]}},{"type":"Feature","properties":{"school":"Roscoe R. Nix ES","name":"Roscoe Nix","zip":"20903","gradeser":"HS-2","fulltype":"Elementary Schools","address2":null,"objectid":"205","relateid":"307","s_id":"3070","schoolname":"Roscoe Nix","grade":"LOW","exporttype":"Schools","principal":"Ms. Annette M. Ffolkes","address":"1100 Corliss St","telephone":"301-422-5070","s_id3":"307","type":"ES","schooltype":"ES","schoolyear":"2017-2018","trelateid":"307"},"geometry":{"type":"Point","coordinates":[-76.98943068928381,39.01681633869866]}},{"type":"Feature","properties":{"school":"A. Mario Loiederman MS","name":"Loiederman","zip":"20906","gradeser":"6-8","fulltype":"Middle Schools","address2":null,"objectid":"206","relateid":"308","s_id":"7870","schoolname":"Loiederman","grade":"N/A","exporttype":"Schools","principal":"Ms. Nicole A. Sosik","address":"12701 Goodhill Rd","telephone":"301-929-2282","s_id3":"787","type":"MS","schooltype":"MS","schoolyear":"2017-2018","trelateid":"308"},"geometry":{"type":"Point","coordinates":[-77.07058528892452,39.06513206514949]}},{"type":"Feature","properties":{"school":"Great Seneca Creek ES","name":"Great Seneca Creek","zip":"20874","gradeser":"K-5","fulltype":"Elementary Schools","address2":null,"objectid":"215","relateid":"318","s_id":"3400","schoolname":"Great Seneca Creek","grade":"N/A","exporttype":"Schools","principal":"Mr. Scott T. Curry","address":"13010 Dairymaid Drive","telephone":"301-353-8500","s_id3":"340","type":"ES","schooltype":"ES","schoolyear":"2017-2018","trelateid":"318"},"geometry":{"type":"Point","coordinates":[-77.26942826780501,39.15231583320846]}},{"type":"Feature","properties":{"school":"Lakelands Park MS","name":"Lakelands Park","zip":"20878","gradeser":"6-8","fulltype":"Middle Schools","address2":"-","objectid":"216","relateid":"319","s_id":"5220","schoolname":"Lakelands Park","grade":"N/A","exporttype":"Schools","principal":"Mrs. Deborah R. Higdon","address":"1200 Main St","telephone":"301-670-1400","s_id3":"522","type":"MS","schooltype":"MS","schoolyear":"2017-2018","trelateid":"319"},"geometry":{"type":"Point","coordinates":[-77.23258650921503,39.1152874196906]}},{"type":"Feature","properties":{"school":"Newport Mill MS","name":"Newport Mill","zip":"20895","gradeser":"6-8","fulltype":"Middle Schools","address2":null,"objectid":"218","relateid":"1","s_id":"7920","schoolname":"Newport Mill","grade":"N/A","exporttype":"Schools","principal":"Ms. Panagiota K. Tsonis","address":"11311 Newport Mill Rd","telephone":"301-929-2244","s_id3":"792","type":"MS","schooltype":"MS","schoolyear":"2017-2018","trelateid":"1"},"geometry":{"type":"Point","coordinates":[-77.06777974228211,39.041357388648635]}},{"type":"Feature","properties":{"school":"Laytonsville ES","name":"Laytonsville","zip":"20882","gradeser":"K-5","fulltype":"Elementary Schools","address2":"-","objectid":"225","relateid":"10","s_id":"510","schoolname":"Laytonsville","grade":"REG","exporttype":"Schools","principal":"Mrs. Donna M. Sagona","address":"21401 Laytonsville Rd","telephone":"(301)-840-7145","s_id3":"51","type":"ES","schooltype":"ES","schoolyear":"2017-2018","trelateid":"10"},"geometry":{"type":"Point","coordinates":[-77.1402659404207,39.20686926099016]}},{"type":"Feature","properties":{"school":"Captain James Daly ES","name":"Daly","zip":"20876","gradeser":"HS-5","fulltype":"Elementary Schools","address2":"-","objectid":"226","relateid":"11","s_id":"1110","schoolname":"Daly","grade":"REG","exporttype":"Schools","principal":"Mrs. Nora G. Dietz","address":"20301 Brandermill Dr","telephone":"240-740-0600","s_id3":"111","type":"ES","schooltype":"ES","schoolyear":"2017-2018","trelateid":"11"},"geometry":{"type":"Point","coordinates":[-77.23209181735605,39.18941712659097]}},{"type":"Feature","properties":{"school":"Garrett Park ES","name":"Garrett Park","zip":"20896","gradeser":"K-5","fulltype":"Elementary Schools","address2":"-","objectid":"227","relateid":"12","s_id":"2040","schoolname":"Garrett Park","grade":"REG","exporttype":"Schools","principal":"Mr. Daniel K. Tucci","address":"4810 Oxford St","telephone":"240-740-0700","s_id3":"204","type":"ES","schooltype":"ES","schoolyear":"2017-2018","trelateid":"12"},"geometry":{"type":"Point","coordinates":[-77.09659772652846,39.03285489565362]}},{"type":"Feature","properties":{"school":"Beall ES","name":"Beall","zip":"20850","gradeser":"HS-5","fulltype":"Elementary Schools","address2":"-","objectid":"228","relateid":"13","s_id":"2070","schoolname":"Beall","grade":"REG","exporttype":"Schools","principal":"Mr. Elliot M. Alter","address":"451 Beall Ave","telephone":"240-740-1220","s_id3":"207","type":"ES","schooltype":"ES","schoolyear":"2017-2018","trelateid":"13"},"geometry":{"type":"Point","coordinates":[-77.16173790518893,39.087777004515075]}},{"type":"Feature","properties":{"school":"Farmland ES","name":"Farmland","zip":"20852","gradeser":"K-5","fulltype":"Elementary Schools","address2":"-","objectid":"229","relateid":"14","s_id":"2190","schoolname":"Farmland","grade":"REG","exporttype":"Schools","principal":"Mrs. Mary E. Bliss","address":"7000 Old Gate Rd","telephone":"240-740-0660","s_id3":"219","type":"ES","schooltype":"ES","schoolyear":"2017-2018","trelateid":"14"},"geometry":{"type":"Point","coordinates":[-77.14530457703832,39.04722801177237]}},{"type":"Feature","properties":{"school":"Luxmanor ES","name":"Luxmanor","zip":"20852","gradeser":"K-5","fulltype":"Elementary Schools","address2":"-","objectid":"230","relateid":"15","s_id":"2200","schoolname":"Luxmanor","grade":"REG","exporttype":"Schools","principal":"Mr. Ryan D. Forkert","address":"6201 Tilden La","telephone":"240-740-0820","s_id3":"220","type":"ES","schooltype":"ES","schoolyear":"2017-2018","trelateid":"15"},"geometry":{"type":"Point","coordinates":[-77.12692263321212,39.04484795090439]}},{"type":"Feature","properties":{"school":"Beverly Farms ES","name":"Beverly Farms","zip":"20854","gradeser":"K-5","fulltype":"Elementary Schools","address2":"-","objectid":"231","relateid":"16","s_id":"2260","schoolname":"Beverly Farms","grade":"REG","exporttype":"Schools","principal":"Mr. Spencer Delisle","address":"8501 Post Oak Rd","telephone":"240-740-0200","s_id3":"226","type":"ES","schooltype":"ES","schoolyear":"2017-2018","trelateid":"16"},"geometry":{"type":"Point","coordinates":[-77.1764382018437,39.05215632820699]}},{"type":"Feature","properties":{"school":"Wayside ES","name":"Wayside","zip":"20854","gradeser":"K-5","fulltype":"Elementary Schools","address2":"-","objectid":"232","relateid":"17","s_id":"2350","schoolname":"Wayside","grade":"REG","exporttype":"Schools","principal":"Mrs. Donna E. Michela","address":"10011 Glen Rd","telephone":"240-740-0240","s_id3":"235","type":"ES","schooltype":"ES","schoolyear":"2017-2018","trelateid":"17"},"geometry":{"type":"Point","coordinates":[-77.20618838484235,39.04746323860148]}},{"type":"Feature","properties":{"school":"Bethesda ES","name":"Bethesda","zip":"20814","gradeser":"K-5","fulltype":"Elementary Schools","address2":"-","objectid":"233","relateid":"18","s_id":"4010","schoolname":"Bethesda","grade":"REG","exporttype":"Schools","principal":"Ms. Lisa S. Seymour","address":"7600 Arlington RD","telephone":"240-204-5300","s_id3":"401","type":"ES","schooltype":"ES","schoolyear":"2017-2018","trelateid":"18"},"geometry":{"type":"Point","coordinates":[-77.09993390553119,38.986490725501255]}},{"type":"Feature","properties":{"school":"Bradley Hills ES","name":"Bradley Hills","zip":"20817","gradeser":"K-5","fulltype":"Elementary Schools","address2":"-","objectid":"234","relateid":"19","s_id":"4100","schoolname":"Bradley Hills","grade":"REG","exporttype":"Schools","principal":"Mrs. Karen E. Caroscio","address":"8701 Hartsdale Ave","telephone":"240-204-5210","s_id3":"410","type":"ES","schooltype":"ES","schoolyear":"2017-2018","trelateid":"19"},"geometry":{"type":"Point","coordinates":[-77.11827154783859,38.99985186068076]}},{"type":"Feature","properties":{"school":"Wood Acres ES","name":"Wood Acres","zip":"20816","gradeser":"K-5","fulltype":"Elementary Schools","address2":"-","objectid":"235","relateid":"20","s_id":"4170","schoolname":"Wood Acres","grade":"REG","exporttype":"Schools","principal":"Mrs. Marita R. Sherburne","address":"5800 Cromwell Dr","telephone":"240-740-1120","s_id3":"417","type":"ES","schooltype":"ES","schoolyear":"2017-2018","trelateid":"20"},"geometry":{"type":"Point","coordinates":[-77.11835041818672,38.96735404686877]}},{"type":"Feature","properties":{"school":"Burning Tree ES","name":"Burning Tree","zip":"20817","gradeser":"K-5","fulltype":"Elementary Schools","address2":"-","objectid":"236","relateid":"21","s_id":"4190","schoolname":"Burning Tree","grade":"REG","exporttype":"Schools","principal":"Dr. Judith F. Lewis","address":"7900 Beech Tree Rd","telephone":"240-740-1750","s_id3":"419","type":"ES","schooltype":"ES","schoolyear":"2017-2018","trelateid":"21"},"geometry":{"type":"Point","coordinates":[-77.1432683469137,38.98988432988105]}},{"type":"Feature","properties":{"school":"Bannockburn ES","name":"Bannockburn","zip":"20817","gradeser":"K-5","fulltype":"Elementary Schools","address2":"-","objectid":"237","relateid":"22","s_id":"4200","schoolname":"Bannockburn","grade":"REG","exporttype":"Schools","principal":"Mrs. Kathryn D. Bradley","address":"6520 Dalroy La","telephone":"240-740-1270","s_id3":"420","type":"ES","schooltype":"ES","schoolyear":"2017-2018","trelateid":"22"},"geometry":{"type":"Point","coordinates":[-77.13817606085358,38.97455645573517]}},{"type":"Feature","properties":{"school":"Ashburton ES","name":"Ashburton","zip":"20817","gradeser":"K-5","fulltype":"Elementary Schools","address2":null,"objectid":"238","relateid":"23","s_id":"4250","schoolname":"Ashburton","grade":"REG","exporttype":"Schools","principal":"Mr. Gregory C. Mullenholz","address":"6314 Lone Oak Dr","telephone":"240-740-1300","s_id3":"425","type":"ES","schooltype":"ES","schoolyear":"2017-2018","trelateid":"23"},"geometry":{"type":"Point","coordinates":[-77.12778658809516,39.01942446745325]}},{"type":"Feature","properties":{"school":"Fields Road ES","name":"Fields Road","zip":"20878","gradeser":"HS-5","fulltype":"Elementary Schools","address2":null,"objectid":"239","relateid":"24","s_id":"5660","schoolname":"Fields Road","grade":"REG","exporttype":"Schools","principal":"Ms. Erica W. Williams","address":"One School Dr","telephone":"301-840-7131","s_id3":"566","type":"ES","schooltype":"ES","schoolyear":"2017-2018","trelateid":"24"},"geometry":{"type":"Point","coordinates":[-77.21508528706005,39.11877219107547]}},{"type":"Feature","properties":{"school":"Stedwick ES","name":"Stedwick","zip":"20879","gradeser":"HS-5","fulltype":"Elementary Schools","address2":"-","objectid":"240","relateid":"25","s_id":"5680","schoolname":"Stedwick","grade":"REG","exporttype":"Schools","principal":"Dr. Margaret Pastor","address":"10631 Stedwick Rd","telephone":"301-840-7187","s_id3":"568","type":"ES","schooltype":"ES","schoolyear":"2017-2018","trelateid":"25"},"geometry":{"type":"Point","coordinates":[-77.21098370745585,39.17410604184554]}},{"type":"Feature","properties":{"school":"Diamond ES","name":"Diamond","zip":"20878","gradeser":"K-5","fulltype":"Elementary Schools","address2":null,"objectid":"241","relateid":"26","s_id":"5700","schoolname":"Diamond","grade":"REG","exporttype":"Schools","principal":"Mr. Daniel Walder","address":"4 Marquis Dr","telephone":"240-740-2120","s_id3":"570","type":"ES","schooltype":"ES","schoolyear":"2017-2018","trelateid":"26"},"geometry":{"type":"Point","coordinates":[-77.23888675026762,39.135693760643555]}},{"type":"Feature","properties":{"school":"Potomac ES","name":"Potomac","zip":"20854","gradeser":"K-5","fulltype":"Elementary Schools","address2":"-","objectid":"242","relateid":"27","s_id":"6010","schoolname":"Potomac","grade":"REG","exporttype":"Schools","principal":"Dr. Catherine R. Allie","address":"10311 River Rd","telephone":"301-469-1042","s_id3":"601","type":"ES","schooltype":"ES","schoolyear":"2017-2018","trelateid":"27"},"geometry":{"type":"Point","coordinates":[-77.21321037876261,39.02163804256442]}},{"type":"Feature","properties":{"school":"Woodlin ES","name":"Woodlin","zip":"20910","gradeser":"K-5","fulltype":"Elementary Schools","address2":"-","objectid":"243","relateid":"28","s_id":"7640","schoolname":"Woodlin","grade":"REG","exporttype":"Schools","principal":"Mr. Craig O. Jackson","address":"2101 Luzerne Ave","telephone":"240-740-2820","s_id3":"764","type":"ES","schooltype":"ES","schoolyear":"2017-2018","trelateid":"28"},"geometry":{"type":"Point","coordinates":[-77.04692869407504,39.00643167143122]}},{"type":"Feature","properties":{"school":"Oakland Terrace ES","name":"Oakland Terrace","zip":"20902","gradeser":"K-5","fulltype":"Elementary Schools","address2":"-","objectid":"244","relateid":"29","s_id":"7690","schoolname":"Oakland Terrace","grade":"REG","exporttype":"Schools","principal":"Mrs. Cheryl D. Pulliam","address":"2720 Plyers Mill Rd","telephone":"301-929-2161","s_id3":"769","type":"ES","schooltype":"ES","schoolyear":"2017-2018","trelateid":"29"},"geometry":{"type":"Point","coordinates":[-77.05765811105739,39.02882399867531]}},{"type":"Feature","properties":{"school":"Viers Mill ES","name":"Viers Mill","zip":"20906","gradeser":"HS-5","fulltype":"Elementary Schools","address2":"-","objectid":"245","relateid":"30","s_id":"7720","schoolname":"Viers Mill","grade":"REG","exporttype":"Schools","principal":"Mr. Matthew D. Hawkins","address":"11711 Joseph Mill Rd","telephone":"240-740-1000","s_id3":"772","type":"ES","schooltype":"ES","schoolyear":"2017-2018","trelateid":"30"},"geometry":{"type":"Point","coordinates":[-77.08529295465819,39.04844845804833]}},{"type":"Feature","properties":{"school":"Rock Creek Forest ES","name":"Rock Creek Forest","zip":"20815","gradeser":"K-5","fulltype":"Elementary Schools","address2":"-","objectid":"246","relateid":"31","s_id":"7730","schoolname":"Rock Creek Forest","grade":"REG","exporttype":"Schools","principal":"Ms. Jennifer H. Lowndes","address":"8330 Grubb Rd","telephone":"240-839-3201","s_id3":"773","type":"ES","schooltype":"ES","schoolyear":"2017-2018","trelateid":"31"},"geometry":{"type":"Point","coordinates":[-77.05119325615696,38.99248961892079]}},{"type":"Feature","properties":{"school":"Highland ES","name":"Highland","zip":"20902","gradeser":"HS-5","fulltype":"Elementary Schools","address2":"-","objectid":"247","relateid":"32","s_id":"7740","schoolname":"Highland","grade":"REG","exporttype":"Schools","principal":"Mr. Scott Steffan","address":"3100 Medway St","telephone":"240-740-1770","s_id3":"774","type":"ES","schooltype":"ES","schoolyear":"2017-2018","trelateid":"32"},"geometry":{"type":"Point","coordinates":[-77.06382529787979,39.05145097384209]}},{"type":"Feature","properties":{"school":"Weller Road ES","name":"Weller Road","zip":"20906","gradeser":"HS-5","fulltype":"Elementary Schools","address2":"-","objectid":"248","relateid":"33","s_id":"7770","schoolname":"Weller Road","grade":"REG","exporttype":"Schools","principal":"MaryBeth O. Mantzouranis","address":"3301 Weller Rd","telephone":"301-287-8601","s_id3":"777","type":"ES","schooltype":"ES","schoolyear":"2017-2018","trelateid":"33"},"geometry":{"type":"Point","coordinates":[-77.06698944238659,39.06543606580114]}},{"type":"Feature","properties":{"school":"Kensington?Parkwood ES","name":"Kensington?Parkwood","zip":"20895","gradeser":"K-5","fulltype":"Elementary Schools","address2":"-","objectid":"249","relateid":"34","s_id":"7830","schoolname":"Kensington?Parkwood","grade":"REG","exporttype":"Schools","principal":"Candace M. Ross","address":"4710 Saul Rd","telephone":"301-571-6949","s_id3":"783","type":"ES","schooltype":"ES","schoolyear":"2017-2018","trelateid":"34"},"geometry":{"type":"Point","coordinates":[-77.09483481608864,39.021669584251896]}},{"type":"Feature","properties":{"school":"Highland View ES","name":"Highland View","zip":"20901","gradeser":"HS-5","fulltype":"Elementary Schools","address2":null,"objectid":"250","relateid":"35","s_id":"7840","schoolname":"Highland View","grade":"REG","exporttype":"Schools","principal":"Ms. Galit Zolkower","address":"9010 Providence Ave","telephone":"240-740-1990","s_id3":"784","type":"ES","schooltype":"ES","schoolyear":"2017-2018","trelateid":"35"},"geometry":{"type":"Point","coordinates":[-77.0102317374184,39.00423084529376]}},{"type":"Feature","properties":{"school":"Wheaton Woods ES","name":"Wheaton Woods","zip":"20853","gradeser":"HS-5","fulltype":"Elementary Schools","address2":"-","objectid":"251","relateid":"36","s_id":"7880","schoolname":"Wheaton Woods","grade":"REG","exporttype":"Schools","principal":"Mr. David T. Chia","address":"4510 Faroe Place","telephone":"240-740-0220","s_id3":"788","type":"ES","schooltype":"ES","schoolyear":"2017-2018","trelateid":"36"},"geometry":{"type":"Point","coordinates":[-77.09014160866076,39.068316477938716]}},{"type":"Feature","properties":{"school":"Rosemary Hills ES","name":"Rosemary Hills","zip":"20910","gradeser":"HS-2","fulltype":"Elementary Schools","address2":"-","objectid":"252","relateid":"37","s_id":"7940","schoolname":"Rosemary Hills","grade":"LOW","exporttype":"Schools","principal":"Mrs. Deborah C. Ryan","address":"2111 Porter Rd","telephone":"301-920-9990","s_id3":"794","type":"ES","schooltype":"ES","schoolyear":"2017-2018","trelateid":"37"},"geometry":{"type":"Point","coordinates":[-77.04538085540044,39.00142009185688]}},{"type":"Feature","properties":{"school":"Rock View ES","name":"Rock View","zip":"20895","gradeser":"HS-5","fulltype":"Elementary Schools","address2":"-","objectid":"253","relateid":"38","s_id":"7950","schoolname":"Rock View","grade":"REG","exporttype":"Schools","principal":"Ms. Kristine A. Alexander","address":"3901 Denfield Ave","telephone":"240-740-0920","s_id3":"795","type":"ES","schooltype":"ES","schoolyear":"2017-2018","trelateid":"38"},"geometry":{"type":"Point","coordinates":[-77.07704299487362,39.039398226458204]}},{"type":"Feature","properties":{"school":"Westbrook ES","name":"Westbrook","zip":"20816","gradeser":"K-5","fulltype":"Elementary Schools","address2":"-","objectid":"254","relateid":"39","s_id":"4080","schoolname":"Westbrook","grade":"REG","exporttype":"Schools","principal":"Ms. Karen M. Cox","address":"5110 Allan Ter","telephone":"240-740-1040","s_id3":"408","type":"ES","schooltype":"ES","schoolyear":"2017-2018","trelateid":"39"},"geometry":{"type":"Point","coordinates":[-77.10276979502356,38.95827381118986]}},{"type":"Feature","properties":{"school":"Monocacy ES","name":"Monocacy","zip":"20842","gradeser":"K-5","fulltype":"Elementary Schools","address2":null,"objectid":"255","relateid":"40","s_id":"6520","schoolname":"Monocacy","grade":"REG","exporttype":"Schools","principal":"Miss Kristin A. Alban","address":"18801 Barnesville Rd","telephone":"301-972-7990","s_id3":"652","type":"ES","schooltype":"ES","schoolyear":"2017-2018","trelateid":"40"},"geometry":{"type":"Point","coordinates":[-77.39280322299557,39.224270114277665]}},{"type":"Feature","properties":{"school":"Poolesville ES","name":"Poolesville","zip":"20837","gradeser":"K-5","fulltype":"Elementary Schools","address2":"-","objectid":"256","relateid":"41","s_id":"1530","schoolname":"Poolesville","grade":"REG","exporttype":"Schools","principal":"Mr. Douglas M. Robbins","address":"19565 Fisher Ave","telephone":"301-972-7960","s_id3":"153","type":"ES","schooltype":"ES","schoolyear":"2017-2018","trelateid":"41"},"geometry":{"type":"Point","coordinates":[-77.40717102040985,39.14412193481638]}},{"type":"Feature","properties":{"school":"Clarksburg ES","name":"Clarksburg","zip":"20871","gradeser":"K-5","fulltype":"Elementary Schools","address2":null,"objectid":"257","relateid":"42","s_id":"1010","schoolname":"Clarksburg","grade":"REG","exporttype":"Schools","principal":"Mr. Carl R. Bencal","address":"13530 Redgrave Place","telephone":"240-740-3530","s_id3":"101","type":"ES","schooltype":"ES","schoolyear":"2017-2018","trelateid":"42"},"geometry":{"type":"Point","coordinates":[-77.28173976467022,39.23672445251058]}},{"type":"Feature","properties":{"school":"Cedar Grove ES","name":"Cedar Grove","zip":"20876","gradeser":"K-5","fulltype":"Elementary Schools","address2":"-","objectid":"258","relateid":"43","s_id":"7030","schoolname":"Cedar Grove","grade":"REG","exporttype":"Schools","principal":"Mr. Lee F. Derby","address":"24001 Ridge Rd","telephone":"301-253-7000","s_id3":"703","type":"ES","schooltype":"ES","schoolyear":"2017-2018","trelateid":"43"},"geometry":{"type":"Point","coordinates":[-77.23221441027181,39.249586430225996]}},{"type":"Feature","properties":{"school":"Lois P. Rockwell ES","name":"Rockwell","zip":"20872","gradeser":"K-5","fulltype":"Elementary Schools","address2":null,"objectid":"259","relateid":"44","s_id":"1560","schoolname":"Rockwell","grade":"REG","exporttype":"Schools","principal":"Mrs. Cheryl A. Clark","address":"24555 Cutsail Dr","telephone":"301-253-7088","s_id3":"156","type":"ES","schooltype":"ES","schoolyear":"2017-2018","trelateid":"44"},"geometry":{"type":"Point","coordinates":[-77.21417024976105,39.25636722344576]}},{"type":"Feature","properties":{"school":"Damascus ES","name":"Damascus","zip":"20872","gradeser":"K-5","fulltype":"Elementary Schools","address2":"-","objectid":"260","relateid":"45","s_id":"7020","schoolname":"Damascus","grade":"REG","exporttype":"Schools","principal":"Mr. William J. Collins","address":"10201 Bethesda Church Rd","telephone":"301-253-7080","s_id3":"702","type":"ES","schooltype":"ES","schoolyear":"2017-2018","trelateid":"45"},"geometry":{"type":"Point","coordinates":[-77.21080045115289,39.28552624067189]}},{"type":"Feature","properties":{"school":"Clearspring ES","name":"Clearspring","zip":"20872","gradeser":"HS-5","fulltype":"Elementary Schools","address2":"-","objectid":"261","relateid":"46","s_id":"7060","schoolname":"Clearspring","grade":"REG","exporttype":"Schools","principal":"Mrs. Holly A. Gilbertson","address":"9930 Moyer Rd","telephone":"240-740-2580","s_id3":"706","type":"ES","schooltype":"ES","schoolyear":"2017-2018","trelateid":"46"},"geometry":{"type":"Point","coordinates":[-77.20744196943508,39.265923357911134]}},{"type":"Feature","properties":{"school":"Woodfield ES","name":"Woodfield","zip":"20879","gradeser":"K-5","fulltype":"Elementary Schools","address2":"-","objectid":"262","relateid":"47","s_id":"7040","schoolname":"Woodfield","grade":"REG","exporttype":"Schools","principal":"Mrs. Stephanie D. Brant","address":"24200 Woodfield Rd","telephone":"240-207-2550","s_id3":"704","type":"ES","schooltype":"ES","schoolyear":"2017-2018","trelateid":"47"},"geometry":{"type":"Point","coordinates":[-77.19815574674766,39.252773708950315]}},{"type":"Feature","properties":{"school":"Ronald McNair ES","name":"McNair","zip":"20874","gradeser":"HS-5","fulltype":"Elementary Schools","address2":"-","objectid":"263","relateid":"48","s_id":"1580","schoolname":"McNair","grade":"REG","exporttype":"Schools","principal":"Mrs. Sherilyn R. Moses","address":"13881 Hopkins Rd","telephone":"301-353-0854","s_id3":"158","type":"ES","schooltype":"ES","schoolyear":"2017-2018","trelateid":"48"},"geometry":{"type":"Point","coordinates":[-77.29052763127808,39.1698520383914]}},{"type":"Feature","properties":{"school":"Germantown ES","name":"Germantown","zip":"20874","gradeser":"K-5","fulltype":"Elementary Schools","address2":"-","objectid":"264","relateid":"49","s_id":"1020","schoolname":"Germantown","grade":"REG","exporttype":"Schools","principal":"Ms. Amy D. Bryant","address":"19110 Liberty Mill Rd","telephone":"301-353-8050","s_id3":"102","type":"ES","schooltype":"ES","schoolyear":"2017-2018","trelateid":"49"},"geometry":{"type":"Point","coordinates":[-77.27643568686113,39.16981589079736]}},{"type":"Feature","properties":{"school":"Clopper Mill ES","name":"Clopper Mill","zip":"20874","gradeser":"HS-5","fulltype":"Elementary Schools","address2":"-","objectid":"265","relateid":"50","s_id":"1000","schoolname":"Clopper Mill","grade":"REG","exporttype":"Schools","principal":"Mr. Larry D. Chep","address":"18501 Cinnamon Dr","telephone":"240-740-2180","s_id3":"100","type":"ES","schooltype":"ES","schoolyear":"2017-2018","trelateid":"50"},"geometry":{"type":"Point","coordinates":[-77.26153336616682,39.15900483946644]}},{"type":"Feature","properties":{"school":"S. Christa McAuliffe ES","name":"McAuliffe","zip":"20874","gradeser":"HS-5","fulltype":"Elementary Schools","address2":"-","objectid":"266","relateid":"51","s_id":"1100","schoolname":"McAuliffe","grade":"REG","exporttype":"Schools","principal":"Mrs. Wanda P. Coates","address":"12500 Wisteria Dr","telephone":"301-353-0910","s_id3":"110","type":"ES","schooltype":"ES","schoolyear":"2017-2018","trelateid":"51"},"geometry":{"type":"Point","coordinates":[-77.26103134204806,39.16760810425446]}},{"type":"Feature","properties":{"school":"Lake Seneca ES","name":"Lake Seneca","zip":"20874","gradeser":"K-5","fulltype":"Elementary Schools","address2":"-","objectid":"267","relateid":"52","s_id":"1080","schoolname":"Lake Seneca","grade":"REG","exporttype":"Schools","principal":"Ms. Teri D. Johnson","address":"13600 Wanegarden Dr","telephone":"240-740-0280","s_id3":"108","type":"ES","schooltype":"ES","schoolyear":"2017-2018","trelateid":"52"},"geometry":{"type":"Point","coordinates":[-77.28319257879937,39.18324985661563]}},{"type":"Feature","properties":{"school":"Waters Landing ES","name":"Waters Landing","zip":"20874","gradeser":"K-5","fulltype":"Elementary Schools","address2":"-","objectid":"268","relateid":"53","s_id":"1090","schoolname":"Waters Landing","grade":"REG","exporttype":"Schools","principal":"Ms. Srelyne A. Harris","address":"13100 Waters Landing Dr","telephone":"240-740-1020","s_id3":"109","type":"ES","schooltype":"ES","schoolyear":"2017-2018","trelateid":"53"},"geometry":{"type":"Point","coordinates":[-77.26864916400939,39.18873426829016]}},{"type":"Feature","properties":{"school":"Fox Chapel ES","name":"Fox Chapel","zip":"20874","gradeser":"HS-5","fulltype":"Elementary Schools","address2":"-","objectid":"269","relateid":"54","s_id":"1060","schoolname":"Fox Chapel","grade":"REG","exporttype":"Schools","principal":"Ms. Diana L. Zabetakis","address":"19315 Archdale Rd","telephone":"240-740-0680","s_id3":"106","type":"ES","schooltype":"ES","schoolyear":"2017-2018","trelateid":"54"},"geometry":{"type":"Point","coordinates":[-77.24215611824668,39.17222932495911]}},{"type":"Feature","properties":{"school":"Dr. Sally K. Ride ES","name":"Ride","zip":"20876","gradeser":"HS-5","fulltype":"Elementary Schools","address2":"-","objectid":"270","relateid":"55","s_id":"2420","schoolname":"Ride","grade":"REG","exporttype":"Schools","principal":"Mrs. Elise M Burgess","address":"21301 Seneca Crossing Dr","telephone":"301-353-0994","s_id3":"242","type":"ES","schooltype":"ES","schoolyear":"2017-2018","trelateid":"55"},"geometry":{"type":"Point","coordinates":[-77.23740652142705,39.20674250575166]}},{"type":"Feature","properties":{"school":"Watkins Mill ES","name":"Watkins Mill","zip":"20879","gradeser":"HS-5","fulltype":"Elementary Schools","address2":"-","objectid":"271","relateid":"56","s_id":"5610","schoolname":"Watkins Mill","grade":"REG","exporttype":"Schools","principal":"Mr. Rock A. Palmisano","address":"19001 Watkins Mill Rd","telephone":"301-840-7181","s_id3":"561","type":"ES","schooltype":"ES","schoolyear":"2017-2018","trelateid":"56"},"geometry":{"type":"Point","coordinates":[-77.21101222214836,39.16712798494535]}},{"type":"Feature","properties":{"school":"Whetstone ES","name":"Whetstone","zip":"20879","gradeser":"HS-5","fulltype":"Elementary Schools","address2":"-","objectid":"272","relateid":"57","s_id":"5580","schoolname":"Whetstone","grade":"REG","exporttype":"Schools","principal":"Mrs. Victoria A. Casey","address":"19201 Thomas Farm Rd","telephone":"240-740-1060","s_id3":"558","type":"ES","schooltype":"ES","schoolyear":"2017-2018","trelateid":"57"},"geometry":{"type":"Point","coordinates":[-77.19681481591101,39.17186274364906]}},{"type":"Feature","properties":{"school":"Strawberry Knoll ES","name":"Strawberry Knoll","zip":"20879","gradeser":"HS-5","fulltype":"Elementary Schools","address2":"-","objectid":"273","relateid":"58","s_id":"5690","schoolname":"Strawberry Knoll","grade":"REG","exporttype":"Schools","principal":"Mr. Patrick E. Scott","address":"18820 Strawberry Knoll Rd","telephone":"301-840-7112","s_id3":"569","type":"ES","schooltype":"ES","schoolyear":"2017-2018","trelateid":"58"},"geometry":{"type":"Point","coordinates":[-77.18231931050296,39.165763062008814]}},{"type":"Feature","properties":{"school":"Flower Hill ES","name":"Flower Hill","zip":"20879","gradeser":"HS-5","fulltype":"Elementary Schools","address2":"-","objectid":"274","relateid":"59","s_id":"5490","schoolname":"Flower Hill","grade":"REG","exporttype":"Schools","principal":"Mr. Lamar Whitmore","address":"18425 Flower Hill Way","telephone":"301-840-7161","s_id3":"549","type":"ES","schooltype":"ES","schoolyear":"2017-2018","trelateid":"59"},"geometry":{"type":"Point","coordinates":[-77.17117439770124,39.1589963053617]}},{"type":"Feature","properties":{"school":"Mill Creek Towne ES","name":"Mill Creek Towne","zip":"20855","gradeser":"HS-5","fulltype":"Elementary Schools","address2":"-","objectid":"275","relateid":"60","s_id":"5560","schoolname":"Mill Creek Towne","grade":"REG","exporttype":"Schools","principal":"Ms. Natasha D. Bolden","address":"17700 Park Mill Dr","telephone":"240-740-1820","s_id3":"556","type":"ES","schooltype":"ES","schoolyear":"2017-2018","trelateid":"60"},"geometry":{"type":"Point","coordinates":[-77.15366716674475,39.14629175667131]}},{"type":"Feature","properties":{"school":"Judith A. Resnik ES","name":"Resnik","zip":"20879","gradeser":"HS-5","fulltype":"Elementary Schools","address2":"-","objectid":"276","relateid":"61","s_id":"5140","schoolname":"Resnik","grade":"REG","exporttype":"Schools","principal":"Ms. LaTricia D. Thomas","address":"7301 Hadley Farms Dr","telephone":"240-740-3240","s_id3":"514","type":"ES","schooltype":"ES","schoolyear":"2017-2018","trelateid":"61"},"geometry":{"type":"Point","coordinates":[-77.15169977466624,39.18157840172561]}},{"type":"Feature","properties":{"school":"Goshen ES","name":"Goshen","zip":"20879","gradeser":"K-5","fulltype":"Elementary Schools","address2":"-","objectid":"277","relateid":"62","s_id":"5460","schoolname":"Goshen","grade":"REG","exporttype":"Schools","principal":"Mrs. Yolanda R. Allen","address":"8701 Warfield Rd","telephone":"301-840-8165","s_id3":"546","type":"ES","schooltype":"ES","schoolyear":"2017-2018","trelateid":"62"},"geometry":{"type":"Point","coordinates":[-77.17998832662437,39.194219996836324]}},{"type":"Feature","properties":{"school":"Cashell ES","name":"Cashell","zip":"20853","gradeser":"HS-5","fulltype":"Elementary Schools","address2":"-","objectid":"278","relateid":"63","s_id":"5110","schoolname":"Cashell","grade":"REG","exporttype":"Schools","principal":"Courtney Jones","address":"17101 Cashell Rd","telephone":"240-740-0560","s_id3":"511","type":"ES","schooltype":"ES","schoolyear":"2017-2018","trelateid":"63"},"geometry":{"type":"Point","coordinates":[-77.0858245834289,39.1372258328755]}},{"type":"Feature","properties":{"school":"Olney ES","name":"Olney","zip":"20832","gradeser":"K-5","fulltype":"Elementary Schools","address2":"-","objectid":"279","relateid":"64","s_id":"5020","schoolname":"Olney","grade":"REG","exporttype":"Schools","principal":"Mrs. Carla Glawe","address":"3401 Queen Mary Dr","telephone":"301-924-3126","s_id3":"502","type":"ES","schooltype":"ES","schoolyear":"2017-2018","trelateid":"64"},"geometry":{"type":"Point","coordinates":[-77.06813060178033,39.14928885340217]}},{"type":"Feature","properties":{"school":"Belmont ES","name":"Belmont","zip":"20832","gradeser":"K-5","fulltype":"Elementary Schools","address2":"-","objectid":"280","relateid":"65","s_id":"5130","schoolname":"Belmont","grade":"REG","exporttype":"Schools","principal":"Mr. Evan J. Pinkowitz","address":"19528 Olney Mill Rd","telephone":"301-924-3140","s_id3":"513","type":"ES","schooltype":"ES","schoolyear":"2017-2018","trelateid":"65"},"geometry":{"type":"Point","coordinates":[-77.06668045234223,39.178583157866804]}},{"type":"Feature","properties":{"school":"Greenwood ES","name":"Greenwood","zip":"20833","gradeser":"K-5","fulltype":"Elementary Schools","address2":"-","objectid":"281","relateid":"66","s_id":"5120","schoolname":"Greenwood","grade":"REG","exporttype":"Schools","principal":"Mrs. Cheryl A. Bunyan","address":"3336 Goldmine Rd","telephone":"240-740-3420","s_id3":"512","type":"ES","schooltype":"ES","schoolyear":"2017-2018","trelateid":"66"},"geometry":{"type":"Point","coordinates":[-77.06486908791304,39.16528685764215]}},{"type":"Feature","properties":{"school":"Brooke Grove ES","name":"Brooke Grove","zip":"20832","gradeser":"HS-5","fulltype":"Elementary Schools","address2":"-","objectid":"282","relateid":"67","s_id":"5180","schoolname":"Brooke Grove","grade":"REG","exporttype":"Schools","principal":"Mrs. Jolynn E. Tarwater","address":"2700 Spartan Rd","telephone":"240-722-1800","s_id3":"518","type":"ES","schooltype":"ES","schoolyear":"2017-2018","trelateid":"67"},"geometry":{"type":"Point","coordinates":[-77.05071992670989,39.15669578935716]}},{"type":"Feature","properties":{"school":"Sherwood ES","name":"Sherwood","zip":"20860","gradeser":"K-5","fulltype":"Elementary Schools","address2":"-","objectid":"283","relateid":"68","s_id":"5010","schoolname":"Sherwood","grade":"REG","exporttype":"Schools","principal":"Mrs. Dina E. Brewer","address":"1401 Olney-Sandy Spring Rd","telephone":"240-740-0960","s_id3":"501","type":"ES","schooltype":"ES","schoolyear":"2017-2018","trelateid":"68"},"geometry":{"type":"Point","coordinates":[-77.03298998920965,39.14956546318297]}},{"type":"Feature","properties":{"school":"Rosemont ES","name":"Rosemont","zip":"20877","gradeser":"HS-5","fulltype":"Elementary Schools","address2":"-","objectid":"284","relateid":"69","s_id":"5550","schoolname":"Rosemont","grade":"REG","exporttype":"Schools","principal":"Mrs. Keely R. Cooke","address":"16400 Alden Ave","telephone":"301-840-7123","s_id3":"555","type":"ES","schooltype":"ES","schoolyear":"2017-2018","trelateid":"69"},"geometry":{"type":"Point","coordinates":[-77.18523557241754,39.12492309884195]}},{"type":"Feature","properties":{"school":"Summit Hall ES","name":"Summit Hall","zip":"20877","gradeser":"HS-5","fulltype":"Elementary Schools","address2":"-","objectid":"285","relateid":"70","s_id":"5630","schoolname":"Summit Hall","grade":"REG","exporttype":"Schools","principal":"Mrs. Lisa Henry Henry","address":"100 W Deer Park Rd","telephone":"301-284-4150","s_id3":"563","type":"ES","schooltype":"ES","schoolyear":"2017-2018","trelateid":"70"},"geometry":{"type":"Point","coordinates":[-77.19537373491859,39.12714446344865]}},{"type":"Feature","properties":{"school":"Washington Grove ES","name":"Washington Grove","zip":"20877","gradeser":"HS-5","fulltype":"Elementary Schools","address2":"-","objectid":"286","relateid":"71","s_id":"5520","schoolname":"Washington Grove","grade":"REG","exporttype":"Schools","principal":"Mrs. Susan B. Barranger","address":"8712 Oakmont St","telephone":"240-740-0300","s_id3":"552","type":"ES","schooltype":"ES","schoolyear":"2017-2018","trelateid":"71"},"geometry":{"type":"Point","coordinates":[-77.17777050768599,39.13233857745629]}},{"type":"Feature","properties":{"school":"Gaithersburg ES","name":"Gaithersburg","zip":"20877","gradeser":"HS-5","fulltype":"Elementary Schools","address2":"-","objectid":"287","relateid":"72","s_id":"5530","schoolname":"Gaithersburg","grade":"REG","exporttype":"Schools","principal":"Mrs. Meredith M. McNerney","address":"35 N Summit Ave","telephone":"301-840-7136","s_id3":"553","type":"ES","schooltype":"ES","schoolyear":"2017-2018","trelateid":"72"},"geometry":{"type":"Point","coordinates":[-77.1920246900589,39.14366318896665]}},{"type":"Feature","properties":{"school":"South Lake ES","name":"South Lake","zip":"20877","gradeser":"HS-5","fulltype":"Elementary Schools","address2":"-","objectid":"288","relateid":"73","s_id":"5640","schoolname":"South Lake","grade":"REG","exporttype":"Schools","principal":"Ms. Celeste D. King","address":"18201 Contour Rd","telephone":"301-337-3450","s_id3":"564","type":"ES","schooltype":"ES","schoolyear":"2017-2018","trelateid":"73"},"geometry":{"type":"Point","coordinates":[-77.19707543676176,39.15585389054256]}},{"type":"Feature","properties":{"school":"Candlewood ES","name":"Candlewood","zip":"20855","gradeser":"K-5","fulltype":"Elementary Schools","address2":"-","objectid":"289","relateid":"74","s_id":"5080","schoolname":"Candlewood","grade":"REG","exporttype":"Schools","principal":"Dr. Linda B. Sheppard","address":"7210 Osprey Dr","telephone":"301-284-4200","s_id3":"508","type":"ES","schooltype":"ES","schoolyear":"2017-2018","trelateid":"74"},"geometry":{"type":"Point","coordinates":[-77.14710246483673,39.128972617202976]}},{"type":"Feature","properties":{"school":"Sequoyah ES","name":"Sequoyah","zip":"20855","gradeser":"K-5","fulltype":"Elementary Schools","address2":"-","objectid":"290","relateid":"75","s_id":"5650","schoolname":"Sequoyah","grade":"REG","exporttype":"Schools","principal":"Dr. Barbara A. Jasper","address":"17301 Bowie Mill Rd","telephone":"301-840-5335","s_id3":"565","type":"ES","schooltype":"ES","schoolyear":"2017-2018","trelateid":"75"},"geometry":{"type":"Point","coordinates":[-77.11788478286267,39.13914703003136]}},{"type":"Feature","properties":{"school":"Darnestown ES","name":"Darnestown","zip":"20878","gradeser":"K-5","fulltype":"Elementary Schools","address2":"-","objectid":"291","relateid":"76","s_id":"3510","schoolname":"Darnestown","grade":"REG","exporttype":"Schools","principal":"Mr. Mark E. Craemer","address":"15030 Turkey Foot Rd","telephone":"301-284-4260","s_id3":"351","type":"ES","schooltype":"ES","schoolyear":"2017-2018","trelateid":"76"},"geometry":{"type":"Point","coordinates":[-77.28476365822895,39.10249922452947]}},{"type":"Feature","properties":{"school":"Jones Lane ES","name":"Jones Lane","zip":"20878","gradeser":"K-5","fulltype":"Elementary Schools","address2":"-","objectid":"292","relateid":"77","s_id":"3600","schoolname":"Jones Lane","grade":"REG","exporttype":"Schools","principal":"Mrs. Carole A. Sample","address":"15110 Jones La","telephone":"301-840-8160","s_id3":"360","type":"ES","schooltype":"ES","schoolyear":"2017-2018","trelateid":"77"},"geometry":{"type":"Point","coordinates":[-77.2660622234519,39.10333624975651]}},{"type":"Feature","properties":{"school":"Thurgood Marshall ES","name":"Marshall","zip":"20876","gradeser":"K-5","fulltype":"Elementary Schools","address2":null,"objectid":"293","relateid":"78","s_id":"2440","schoolname":"Marshall","grade":"REG","exporttype":"Schools","principal":"Mrs. Pamela S. Nazzaro","address":"12260 Mcdonald Chapel Dr","telephone":"301-670-8282","s_id3":"244","type":"ES","schooltype":"ES","schoolyear":"2017-2018","trelateid":"78"},"geometry":{"type":"Point","coordinates":[-77.25991377712816,39.12616411312933]}},{"type":"Feature","properties":{"school":"Brown Station ES","name":"Brown Station","zip":"20878","gradeser":"HS-5","fulltype":"Elementary Schools","address2":"-","objectid":"294","relateid":"79","s_id":"5590","schoolname":"Brown Station","grade":"REG","exporttype":"Schools","principal":"Mrs. Mary Jo Powell","address":"851 Quince Orchard Blvd","telephone":"240-740-0260","s_id3":"559","type":"ES","schooltype":"ES","schoolyear":"2017-2018","trelateid":"79"},"geometry":{"type":"Point","coordinates":[-77.23053196360563,39.13878686174731]}},{"type":"Feature","properties":{"school":"Stone Mill ES","name":"Stone Mill","zip":"20879","gradeser":"K-5","fulltype":"Elementary Schools","address2":"-","objectid":"295","relateid":"80","s_id":"6530","schoolname":"Stone Mill","grade":"REG","exporttype":"Schools","principal":"Dr. Kimberly A. Williams","address":"14323 Stonebridge View Dr","telephone":"301-279-4975","s_id3":"653","type":"ES","schooltype":"ES","schoolyear":"2017-2018","trelateid":"80"},"geometry":{"type":"Point","coordinates":[-77.21454184453279,39.09156915152781]}},{"type":"Feature","properties":{"school":"DuFief ES","name":"DuFief","zip":"20878","gradeser":"K-5","fulltype":"Elementary Schools","address2":"-","objectid":"296","relateid":"81","s_id":"2410","schoolname":"DuFief","grade":"REG","exporttype":"Schools","principal":"Mr. Brent T. Mascott","address":"15001 DuFief Dr","telephone":"301-279-4980","s_id3":"241","type":"ES","schooltype":"ES","schoolyear":"2017-2018","trelateid":"81"},"geometry":{"type":"Point","coordinates":[-77.23757317051157,39.10185177606753]}},{"type":"Feature","properties":{"school":"Travilah ES","name":"Travilah","zip":"20878","gradeser":"K-5","fulltype":"Elementary Schools","address2":"-","objectid":"297","relateid":"82","s_id":"2160","schoolname":"Travilah","grade":"REG","exporttype":"Schools","principal":"Mrs. Susan Shenk","address":"13801 DuFief Mill Rd","telephone":"301-840-7153","s_id3":"216","type":"ES","schooltype":"ES","schoolyear":"2017-2018","trelateid":"82"},"geometry":{"type":"Point","coordinates":[-77.24888658677173,39.082511779901026]}},{"type":"Feature","properties":{"school":"Rocky Hill MS","name":"Rocky Hill","zip":"20871","gradeser":"6-8","fulltype":"Middle Schools","address2":"-","objectid":"298","relateid":"322","s_id":"7070","schoolname":"Rocky Hill","grade":"N/A","exporttype":"Schools","principal":"Dr. Cynthia Eldridge","address":"22401 Brick Haven Way","telephone":"301-353-8282","s_id3":"707","type":"MS","schooltype":"MS","schoolyear":"2017-2018","trelateid":"322"},"geometry":{"type":"Point","coordinates":[-77.26334093979224,39.22235077912046]}},{"type":"Feature","properties":{"school":"Spark M. Matsunaga ES","name":"Matsunaga","zip":"20874","gradeser":"K-5","fulltype":"Elementary Schools","address2":null,"objectid":"136","relateid":"229","s_id":"5230","schoolname":"Matsunaga","grade":"REG","exporttype":"Schools","principal":"Mr. James (Jimmy) A. Sweeney","address":"13902 Bromfield Rd","telephone":"301-601-4350","s_id3":"523","type":"ES","schooltype":"ES","schoolyear":"2017-2018","trelateid":"229"},"geometry":{"type":"Point","coordinates":[-77.29272475141119,39.150576076044835]}},{"type":"Feature","properties":{"school":"William B. Gibbs Jr. ES","name":"William B. Gibbs Jr.","zip":"20874","gradeser":"K-5","fulltype":"Elementary Schools","address2":null,"objectid":"299","relateid":"255","s_id":"3370","schoolname":"William B. Gibbs Jr.","grade":"REG","exporttype":"Schools","principal":"Mrs. Kimberly B. Bosnic","address":"12601 Milestone Manor La","telephone":"240-740-0740","s_id3":"337","type":"ES","schooltype":"ES","schoolyear":"2017-2018","trelateid":"255"},"geometry":{"type":"Point","coordinates":[-77.2604196736332,39.205365150102445]}},{"type":"Feature","properties":{"school":"Flora M. Singer ES","name":"Singer","zip":"20902","gradeser":"K-5","fulltype":"Elementary Schools","address2":null,"objectid":"300","relateid":"0","s_id":"7700","schoolname":"Singer","grade":"REG","exporttype":"Schools","principal":"Mr. Kyle J. Heatwole","address":"2600 Hayden Dr","telephone":"240-740-0330","s_id3":"770","type":"ES","schooltype":"ES","schoolyear":"2017-2018","trelateid":"0"},"geometry":{"type":"Point","coordinates":[-77.0543305892405,39.01901057505921]}},{"type":"Feature","properties":{"school":"Wilson Wims ES","name":"Wilson Wims","zip":"20871","gradeser":"K-5","fulltype":"Elementary Schools","address2":null,"objectid":"301","relateid":"0","s_id":"3410","schoolname":"Wilson Wims","grade":"REG","exporttype":"Schools","principal":"Mr. Sean P. McGee","address":"12520 Blue Sky Dr","telephone":"240-406-1670","s_id3":"341","type":"ES","schooltype":"ES","schoolyear":"2017-2018","trelateid":"0"},"geometry":{"type":"Point","coordinates":[-77.26098230614997,39.23786201576654]}},{"type":"Feature","properties":{"school":"Hallie Wells MS","name":"Hallie Wells","zip":"20871","gradeser":"6-8","fulltype":"Middle Schools","address2":null,"objectid":"0","relateid":"0","s_id":"3450","schoolname":"Hallie Wells","grade":"N/A","exporttype":"Schools","principal":"Dr. Barbara A. Woodward","address":"11701 Little Seneca Pkwy","telephone":"301-284-4800","s_id3":"345","type":"MS","schooltype":"MS","schoolyear":"2017-2018","trelateid":"258"},"geometry":{"type":"Point","coordinates":[-77.23925959972128,39.23244653051724]}},{"type":"Feature","properties":{"school":"Silver Creek MS","name":"Silver Creek","zip":"20795","gradeser":"6-8","fulltype":"Middle Schools","address2":null,"objectid":"0","relateid":"0","s_id":"8350","schoolname":"Silver Creek","grade":"N/A","exporttype":"Schools","principal":"Dr. Traci L. Townsend","address":"3701 Saul Rd","telephone":"240-740-2200","s_id3":"835","type":"MS","schooltype":"MS","schoolyear":"2017-2018","trelateid":"0"},"geometry":{"type":"Point","coordinates":[-77.07438149576598,39.016159793932125]}}]
}